municipio,estado,bioma,latitude,longitude,frp_previsto,risco,semana_sin,semana_cos,precipitacao_total,dias_sem_chuva_max
ABADIA DOS DOURADOS,MINAS GERAIS,Cerrado,-18.337533973626368,-47.451443410989,15.964186,Alto,0.12053668025532308,-0.992708874098054,4.148625,25.6375
ABADIÂNIA,GOIÁS,Cerrado,-16.192333350111856,-48.717510151006714,14.512369,Alto,0.12053668025532308,-0.992708874098054,3.515714285714286,29.602040816326532
ABAETETUBA,PARÁ,Amazônia,-1.7625665157639452,-48.77842270573966,11.252095,Alto,0.12053668025532308,-0.992708874098054,34.4981981981982,5.90990990990991
ABAETÉ,MINAS GERAIS,Cerrado,-19.139694977369174,-45.37427347807639,11.528289,Alto,0.12053668025532308,-0.992708874098054,3.838347826086957,23.208695652173912
ABAIARA,CEARÁ,Caatinga,-7.366756460071515,-39.02874343146601,16.64731,Alto,0.12053668025532308,-0.992708874098054,5.06910891089109,19.059405940594058
ABARÉ,BAHIA,Caatinga,-8.702796046511628,-39.27256377906976,13.839899,Alto,0.12053668025532308,-0.992708874098054,1.4587719298245612,32.96491228070175
ABDON BATISTA,SANTA CATARINA,Mata Atlântica,-27.56572337278106,-51.04929284615386,5.9909844,Médio,0.12053668025532308,-0.992708874098054,0.7330357142857142,5.357142857142857
ABEL FIGUEIREDO,PARÁ,Amazônia,-4.928837914389797,-48.43599815373408,16.11421,Alto,0.12053668025532308,-0.992708874098054,19.98410714285714,8.169642857142858
ABELARDO LUZ,SANTA CATARINA,Mata Atlântica,-26.605186594696967,-52.17078520075757,6.442122,Médio,0.12053668025532308,-0.992708874098054,2.0364406779661017,5.762711864406779
ABREU E LIMA,PERNAMBUCO,Mata Atlântica,-7.877153750000001,-35.011733475,13.403574,Alto,0.12053668025532308,-0.992708874098054,1.1126315789473684,12.631578947368421
ABREULÂNDIA,TOCANTINS,Cerrado,-9.486382865605663,-49.30201050203362,27.006113,Alto,0.12053668025532308,-0.992708874098054,94.73590551181103,26.834645669291337
ACAJUTIBA,BAHIA,Mata Atlântica,-11.731666,-38.022696,9.61,Médio,0.12053668025532308,-0.992708874098054,4.105925925925926,16.666666666666668
ACARAPE,CEARÁ,Caatinga,-4.2287935949367075,-38.68438936708861,7.6142354,Médio,0.12053668025532308,-0.992708874098054,0.09119402985074626,52.25373134328358
ACARAÚ,CEARÁ,Caatinga,-2.9912800753186564,-40.08908452896872,14.164518,Alto,0.12053668025532308,-0.992708874098054,2.9821008403361344,23.016806722689076
ACARI,RIO GRANDE DO NORTE,Caatinga,-6.430664796116506,-36.662314436893205,10.642266,Médio,0.12053668025532308,-0.992708874098054,2.0625,24.045454545454547
ACARÁ,PARÁ,Amazônia,-2.1001950609911058,-48.41681799877171,18.681376,Alto,0.12053668025532308,-0.992708874098054,251.83453237410072,7.553956834532374
ACAUÃ,PIAUÍ,Caatinga,-8.292639396479464,-41.00186252640403,15.465816,Alto,0.12053668025532308,-0.992708874098054,3.2444871794871792,40.37179487179487
ACEGUÁ,RIO GRANDE DO SUL,Pampa,-31.734370399999996,-54.04245657142857,3.058251,Baixo,0.12053668025532308,-0.992708874098054,0.24363636363636365,4.7272727272727275
ACOPIARA,CEARÁ,Caatinga,-6.14148578118673,-39.505814054664384,18.809052,Alto,0.12053668025532308,-0.992708874098054,2.9568702290076336,41.52671755725191
ACORIZAL,MATO GROSSO,Cerrado,-15.183400295358647,-56.25550439099856,23.794712,Alto,0.12053668025532308,-0.992708874098054,17.142739726027397,17.89041095890411
ACREÚNA,GOIÁS,Cerrado,-17.487987185291995,-50.291461701514045,35.487907,Alto,0.12053668025532308,-0.992708874098054,28.36795454545455,15.977272727272727
ADAMANTINA,SÃO PAULO,Mata Atlântica,-21.605041839080464,-51.034422068965526,20.741598,Alto,0.12053668025532308,-0.992708874098054,3.192758620689655,8.379310344827585
ADELÂNDIA,GOIÁS,Cerrado,-16.346524099378883,-50.176872987577646,21.207317,Alto,0.12053668025532308,-0.992708874098054,2.3181818181818183,23.09090909090909
ADOLFO,SÃO PAULO,Mata Atlântica,-21.24608155652174,-49.64789304347827,20.89734,Alto,0.12053668025532308,-0.992708874098054,3.833888888888889,7.222222222222222
ADRIANÓPOLIS,PARANÁ,Mata Atlântica,-24.748632213473318,-48.83007636132986,6.0359945,Médio,0.12053668025532308,-0.992708874098054,13.141938775510203,6.775510204081633
ADUSTINA,BAHIA,Caatinga,-10.560203624161073,-38.02108094630873,12.382536,Alto,0.12053668025532308,-0.992708874098054,2.559,29.96
AFOGADOS DA INGAZEIRA,PERNAMBUCO,Caatinga,-7.7314922051282045,-37.615166347435895,15.187714,Alto,0.12053668025532308,-0.992708874098054,6.015739130434782,22.269565217391303
AFONSO BEZERRA,RIO GRANDE DO NORTE,Caatinga,-5.459963948863638,-36.661935767045435,8.969753,Médio,0.12053668025532308,-0.992708874098054,0.6491428571428572,30.457142857142856
AFONSO CLÁUDIO,ESPÍRITO SANTO,Mata Atlântica,-20.13909852523364,-41.138279489719615,9.217166,Médio,0.12053668025532308,-0.992708874098054,4.930652173913043,16.82608695652174
AFONSO CUNHA,MARANHÃO,Cerrado,-4.197696126533248,-43.27704402194965,23.13443,Alto,0.12053668025532308,-0.992708874098054,10.35962962962963,26.382716049382715
AFRÂNIO,PERNAMBUCO,Caatinga,-8.625054970006383,-41.0042929023612,15.614747,Alto,0.12053668025532308,-0.992708874098054,7.9908,43.61
AFUÁ,PARÁ,Amazônia,-0.0696847648456057,-50.66560588182897,8.506247,Médio,0.12053668025532308,-0.992708874098054,18.253086419753085,4.234567901234568
AGRICOLÂNDIA,PIAUÍ,Caatinga,-5.764760491195549,-42.67449916774792,18.382486,Alto,0.12053668025532308,-0.992708874098054,4.602413793103448,15.862068965517242
AGROLÂNDIA,SANTA CATARINA,Mata Atlântica,-27.458081368421052,-49.81731726315789,4.8869987,Baixo,0.12053668025532308,-0.992708874098054,0.8111111111111111,4.25
AGRONÔMICA,SANTA CATARINA,Mata Atlântica,-27.331223571428566,-49.718234047619035,5.7366295,Médio,0.12053668025532308,-0.992708874098054,3.2426315789473685,5.526315789473684
AGUAÍ,SÃO PAULO,Cerrado,-22.064520784810124,-47.03395668037975,9.706052,Médio,0.12053668025532308,-0.992708874098054,4.500192307692307,8.586538461538462
AGUDO,RIO GRANDE DO SUL,Mata Atlântica,-29.648702421524668,-53.24881542600896,3.920187,Baixo,0.12053668025532308,-0.992708874098054,1.2425396825396826,5.349206349206349
AGUDOS DO SUL,PARANÁ,Mata Atlântica,-26.03202784615384,-49.2980038974359,5.793841,Médio,0.12053668025532308,-0.992708874098054,2.782352941176471,7.2745098039215685
AGUIAR,PARAÍBA,Caatinga,-7.066587368421054,-38.208997208577,16.052761,Alto,0.12053668025532308,-0.992708874098054,2.589342105263158,22.394736842105264
AGUIARNÓPOLIS,TOCANTINS,Cerrado,-6.49168760989011,-47.50512752930403,15.904407,Alto,0.12053668025532308,-0.992708874098054,13.150731707317071,12.548780487804878
AIMORÉS,MINAS GERAIS,Mata Atlântica,-19.64025206164384,-41.2126835239726,9.064403,Médio,0.12053668025532308,-0.992708874098054,1.6098780487804878,20.548780487804876
AIQUARA,BAHIA,Mata Atlântica,-14.083255000000001,-39.88928800000001,8.417741,Médio,0.12053668025532308,-0.992708874098054,0.2792592592592592,15.333333333333334
AIUABA,CEARÁ,Caatinga,-6.649119740295748,-40.26421359473196,18.49294,Alto,0.12053668025532308,-0.992708874098054,1.2242391304347826,43.33695652173913
AIURUOCA,MINAS GERAIS,Mata Atlântica,-22.00362890353698,-44.637220726688106,8.125323,Médio,0.12053668025532308,-0.992708874098054,2.7822500000000003,10.525
ALAGOA GRANDE,PARAÍBA,Caatinga,-7.059386793893129,-35.631953568702286,7.196838,Médio,0.12053668025532308,-0.992708874098054,0.24306666666666668,29.88
ALAGOA NOVA,PARAÍBA,Caatinga,-7.063671219512197,-35.75584390243902,7.053046,Médio,0.12053668025532308,-0.992708874098054,0.25925,27.575
ALAGOINHA,PERNAMBUCO,Caatinga,-8.491149759999999,-36.746874600000005,6.1766624,Médio,0.12053668025532308,-0.992708874098054,2.3971153846153848,13.971153846153847
ALAGOINHA DO PIAUÍ,PIAUÍ,Caatinga,-6.896201942857143,-40.90517484285714,16.077492,Alto,0.12053668025532308,-0.992708874098054,1.6841891891891891,33.648648648648646
ALAGOINHAS,BAHIA,Caatinga,-11.971430597014926,-38.406659835820896,8.398923,Médio,0.12053668025532308,-0.992708874098054,1.0479999999999998,16.62857142857143
ALAMBARI,SÃO PAULO,Mata Atlântica,-23.52339756478405,-47.827194269102996,7.3686275,Médio,0.12053668025532308,-0.992708874098054,2.415,8.5625
ALCANTIL,PARAÍBA,Caatinga,-7.6941935714285705,-36.04048630952382,7.835702,Médio,0.12053668025532308,-0.992708874098054,0.4741176470588235,26.11764705882353
ALCINÓPOLIS,MATO GROSSO DO SUL,Cerrado,-18.166991473914504,-53.48918405553685,42.993073,Alto,0.12053668025532308,-0.992708874098054,139.04857142857145,15.885714285714286
ALCOBAÇA,BAHIA,Mata Atlântica,-17.444667165640737,-39.387833180190285,19.949053,Alto,0.12053668025532308,-0.992708874098054,1.40875,6.1875
ALCÂNTARA,MARANHÃO,Amazônia,-2.3895255568581484,-44.553137385697546,14.79839,Alto,0.12053668025532308,-0.992708874098054,2.1137647058823528,10.83529411764706
ALDEIAS ALTAS,MARANHÃO,Cerrado,-4.493912620293711,-43.35581535907146,27.449463,Alto,0.12053668025532308,-0.992708874098054,45.33928104575163,20.052287581699346
ALEGRE,ESPÍRITO SANTO,Mata Atlântica,-20.714839423255807,-41.53572015813954,9.704687,Médio,0.12053668025532308,-0.992708874098054,2.0967857142857143,19.0
ALEGRETE,RIO GRANDE DO SUL,Pampa,-29.668252651700676,-55.94381819047619,21.484425,Alto,0.12053668025532308,-0.992708874098054,2.11990990990991,6.594594594594595
ALEGRETE DO PIAUÍ,PIAUÍ,Caatinga,-7.205427481751825,-40.80262619343067,15.626015,Alto,0.12053668025532308,-0.992708874098054,0.8498113207547171,36.339622641509436
ALENQUER,PARÁ,Amazônia,-1.620892341980191,-54.831165642310346,17.028303,Alto,0.12053668025532308,-0.992708874098054,230.31716049382715,6.234567901234568
ALEXANDRIA,RIO GRANDE DO NORTE,Caatinga,-6.388457943749999,-38.00913175208333,14.283889,Alto,0.12053668025532308,-0.992708874098054,2.376736842105263,41.747368421052634
ALEXÂNIA,GOIÁS,Cerrado,-16.08584589065255,-48.48642865784832,13.40236,Alto,0.12053668025532308,-0.992708874098054,0.9380487804878049,33.63414634146341
ALFREDO CHAVES,ESPÍRITO SANTO,Mata Atlântica,-20.545067289308175,-40.889424899371065,9.051734,Médio,0.12053668025532308,-0.992708874098054,1.4434782608695653,17.130434782608695
ALFREDO WAGNER,SANTA CATARINA,Mata Atlântica,-27.716536031746024,-49.3057551111111,4.8981857,Baixo,0.12053668025532308,-0.992708874098054,4.966612903225807,4.983870967741935
ALHANDRA,PARAÍBA,Mata Atlântica,-7.350077663551402,-34.92269171495328,11.379452,Alto,0.12053668025532308,-0.992708874098054,0.7431914893617021,0.0
ALIANÇA,PERNAMBUCO,Caatinga,-7.577857844311377,-35.22000808383235,12.978599,Alto,0.12053668025532308,-0.992708874098054,1.4465034965034964,24.237762237762237
ALIANÇA DO TOCANTINS,TOCANTINS,Cerrado,-11.333956152917507,-48.89231449939637,21.279068,Alto,0.12053668025532308,-0.992708874098054,17.785040000000002,21.92
ALMADINA,BAHIA,Mata Atlântica,-14.68870059171597,-39.66316165680473,7.9447265,Médio,0.12053668025532308,-0.992708874098054,0.263448275862069,14.60344827586207
ALMAS,TOCANTINS,Cerrado,-11.43856432070421,-47.261144334044225,25.396843,Alto,0.12053668025532308,-0.992708874098054,51.17208053691275,30.986577181208055
ALMEIRIM,PARÁ,Amazônia,-1.2199057140132026,-52.96884067608745,17.181467,Alto,0.12053668025532308,-0.992708874098054,132.0178620689655,9.668965517241379
ALMENARA,MINAS GERAIS,Mata Atlântica,-16.05967152155625,-40.74472789800209,13.088249,Alto,0.12053668025532308,-0.992708874098054,12.392178217821783,22.376237623762375
ALMINO AFONSO,RIO GRANDE DO NORTE,Caatinga,-6.161534470588235,-37.75689523529412,13.3924885,Alto,0.12053668025532308,-0.992708874098054,2.5590625,39.109375
ALMIRANTE TAMANDARÉ,PARANÁ,Mata Atlântica,-25.26227024390244,-49.32872247967481,4.7525845,Baixo,0.12053668025532308,-0.992708874098054,1.5406756756756756,6.364864864864865
ALMIRANTE TAMANDARÉ DO SUL,RIO GRANDE DO SUL,Mata Atlântica,-28.0880775,-52.96934,9.8301525,Médio,0.12053668025532308,-0.992708874098054,4.015,5.0
ALPERCATA,MINAS GERAIS,Mata Atlântica,-18.96388910526316,-41.97807024736842,12.131389,Alto,0.12053668025532308,-0.992708874098054,8.63090909090909,31.022727272727273
ALPESTRE,RIO GRANDE DO SUL,Mata Atlântica,-27.234181555555555,-53.07676955555556,4.695295,Baixo,0.12053668025532308,-0.992708874098054,1.2767857142857142,4.785714285714286
ALPINÓPOLIS,MINAS GERAIS,Mata Atlântica,-20.896191498591545,-46.350711926760546,10.736608,Médio,0.12053668025532308,-0.992708874098054,2.5328971962616826,23.72897196261682
ALTA FLORESTA,MATO GROSSO,Amazônia,-9.942876882347885,-56.35985592282574,21.860449,Alto,0.12053668025532308,-0.992708874098054,57.97267123287671,18.698630136986303
ALTA FLORESTA D'OESTE,RONDÔNIA,Amazônia,-12.808928895942401,-62.45786805052359,27.109163,Alto,0.12053668025532308,-0.992708874098054,132.0730158730159,13.912698412698413
ALTAIR,SÃO PAULO,Mata Atlântica,-20.48833998019802,-49.126240594059404,19.871237,Alto,0.12053668025532308,-0.992708874098054,10.489402985074626,9.567164179104477
ALTAMIRA,PARÁ,Amazônia,-7.270600910546628,-54.42127881807554,33.238987,Alto,0.12053668025532308,-0.992708874098054,1055.099213483146,23.584269662921347
ALTAMIRA DO MARANHÃO,MARANHÃO,Amazônia,-4.098541814501289,-45.49535405815237,18.396502,Alto,0.12053668025532308,-0.992708874098054,12.8075,15.041666666666666
ALTINHO,PERNAMBUCO,Caatinga,-8.460455783132529,-36.12709674698795,5.978392,Médio,0.12053668025532308,-0.992708874098054,1.122882882882883,26.486486486486488
ALTINÓPOLIS,SÃO PAULO,Cerrado,-20.98561734510126,-47.35901912342638,19.604292,Alto,0.12053668025532308,-0.992708874098054,26.3088,10.426666666666666
ALTO ALEGRE,RORAIMA,Amazônia,3.002549401086336,-61.662459668763105,13.7184,Alto,0.12053668025532308,-0.992708874098054,34.07524324324324,8.767567567567568
ALTO ALEGRE DO MARANHÃO,MARANHÃO,Cerrado,-4.215548251041048,-44.38741146579417,20.856894,Alto,0.12053668025532308,-0.992708874098054,9.882962962962964,15.481481481481481
ALTO ALEGRE DO PINDARÉ,MARANHÃO,Amazônia,-3.889267048842685,-46.02277215172617,20.763563,Alto,0.12053668025532308,-0.992708874098054,32.98764150943396,25.330188679245282
ALTO ALEGRE DOS PARECIS,RONDÔNIA,Amazônia,-12.970912471479954,-62.062831949897216,19.495838,Alto,0.12053668025532308,-0.992708874098054,32.124216867469876,11.710843373493976
ALTO ARAGUAIA,MATO GROSSO,Cerrado,-17.690165191090053,-53.58330370123223,27.364388,Alto,0.12053668025532308,-0.992708874098054,18.92305785123967,19.710743801652892
ALTO BELA VISTA,SANTA CATARINA,Mata Atlântica,-27.427758888888892,-51.91038888888889,6.761063,Médio,0.12053668025532308,-0.992708874098054,2.7542857142857144,7.714285714285714
ALTO BOA VISTA,MATO GROSSO,Amazônia,-11.823323621621622,-51.81906331105651,24.668867,Alto,0.12053668025532308,-0.992708874098054,15.184875,29.39375
ALTO DO RODRIGUES,RIO GRANDE DO NORTE,Caatinga,-5.36850456375839,-36.777326778523495,10.256018,Médio,0.12053668025532308,-0.992708874098054,2.42,22.102040816326532
ALTO FELIZ,RIO GRANDE DO SUL,Mata Atlântica,-29.362835961538455,-51.31898423076923,3.889278,Baixo,0.12053668025532308,-0.992708874098054,0.08387096774193548,4.354838709677419
ALTO GARÇAS,MATO GROSSO,Cerrado,-17.007414232592584,-53.656036484444435,25.488832,Alto,0.12053668025532308,-0.992708874098054,43.83609090909091,22.881818181818183
ALTO JEQUITIBÁ,MINAS GERAIS,Mata Atlântica,-20.43112898607243,-41.941622579387186,9.88799,Médio,0.12053668025532308,-0.992708874098054,2.4291666666666667,25.4375
ALTO LONGÁ,PIAUÍ,Caatinga,-5.432122451569809,-42.18475217501672,17.442457,Alto,0.12053668025532308,-0.992708874098054,11.30156862745098,19.61764705882353
ALTO PARAGUAI,MATO GROSSO,Amazônia,-14.84101795576408,-56.795796520777465,22.962078,Alto,0.12053668025532308,-0.992708874098054,12.794915254237289,20.703389830508474
ALTO PARANÁ,PARANÁ,Mata Atlântica,-23.098091234113713,-52.32982284615386,13.289231,Alto,0.12053668025532308,-0.992708874098054,2.5428395061728395,7.814814814814815
ALTO PARAÍSO,PARANÁ,Mata Atlântica,-23.552717672490154,-53.94535291609253,29.5742,Alto,0.12053668025532308,-0.992708874098054,134.18441860465117,12.529069767441861
ALTO PARAÍSO DE GOIÁS,GOIÁS,Cerrado,-14.16716703298279,-47.543630550669214,17.0531,Alto,0.12053668025532308,-0.992708874098054,14.851140350877193,23.00877192982456
ALTO PARNAÍBA,MARANHÃO,Cerrado,-9.572781170358857,-46.175543060468435,27.711788,Alto,0.12053668025532308,-0.992708874098054,77.87760479041916,35.275449101796404
ALTO RIO DOCE,MINAS GERAIS,Mata Atlântica,-21.027344387351775,-43.35883506324111,11.042886,Alto,0.12053668025532308,-0.992708874098054,4.283564356435644,16.88118811881188
ALTO RIO NOVO,ESPÍRITO SANTO,Mata Atlântica,-19.011944473029043,-40.997513485477164,9.264194,Médio,0.12053668025532308,-0.992708874098054,1.4314516129032258,35.04838709677419
ALTO SANTO,CEARÁ,Caatinga,-5.540255273504272,-38.153492764957264,13.968279,Alto,0.12053668025532308,-0.992708874098054,3.4885849056603777,31.358490566037737
ALTO TAQUARI,MATO GROSSO,Cerrado,-17.832067709601876,-53.319426979703344,25.390388,Alto,0.12053668025532308,-0.992708874098054,3.4388372093023256,28.069767441860463
ALTOS,PIAUÍ,Caatinga,-5.015353179559971,-42.46468418807666,20.923645,Alto,0.12053668025532308,-0.992708874098054,4.458793103448276,15.21551724137931
ALTÔNIA,PARANÁ,Mata Atlântica,-23.91028085752154,-54.053087705434066,15.351722,Alto,0.12053668025532308,-0.992708874098054,26.316451612903226,6.225806451612903
ALVARÃES,AMAZONAS,Amazônia,-3.4113345764389753,-64.97329131494838,9.104871,Médio,0.12053668025532308,-0.992708874098054,99.43034482758621,2.853448275862069
ALVINÓPOLIS,MINAS GERAIS,Mata Atlântica,-20.11041530927835,-43.19188287628866,10.813414,Médio,0.12053668025532308,-0.992708874098054,1.5472413793103448,25.06896551724138
ALVORADA,TOCANTINS,Cerrado,-12.396759872493986,-49.16270619647152,20.702477,Alto,0.12053668025532308,-0.992708874098054,10.70622641509434,25.150943396226417
ALVORADA DE MINAS,MINAS GERAIS,Mata Atlântica,-18.795455011204478,-43.39701371708682,13.300579,Alto,0.12053668025532308,-0.992708874098054,0.8410344827586207,36.327586206896555
ALVORADA DO GURGUÉIA,PIAUÍ,Caatinga,-8.417867966942147,-43.8569032380165,26.944221,Alto,0.12053668025532308,-0.992708874098054,66.81347150259067,19.497409326424872
ALVORADA DO NORTE,GOIÁS,Cerrado,-14.61791827601411,-46.61870286992947,20.95067,Alto,0.12053668025532308,-0.992708874098054,28.3334,23.17
ALÉM PARAÍBA,MINAS GERAIS,Mata Atlântica,-21.81754709251101,-42.73560607929515,8.724298,Médio,0.12053668025532308,-0.992708874098054,1.1884782608695652,10.717391304347826
AMAJARI,RORAIMA,Amazônia,3.7724832563910957,-61.53598224571702,15.905518,Alto,0.12053668025532308,-0.992708874098054,45.16948717948718,9.185897435897436
AMAMBAI,MATO GROSSO DO SUL,Mata Atlântica,-23.13368380225989,-55.02245843615819,10.942889,Médio,0.12053668025532308,-0.992708874098054,6.6696946564885495,6.702290076335878
AMAPORÃ,PARANÁ,Mata Atlântica,-23.157395075376876,-52.85646882412061,13.465318,Alto,0.12053668025532308,-0.992708874098054,5.197837837837838,6.972972972972973
AMAPÁ DO MARANHÃO,MARANHÃO,Amazônia,-1.6641501956271574,-45.91695991714616,15.756792,Alto,0.12053668025532308,-0.992708874098054,13.393589743589745,13.705128205128204
AMARAJI,PERNAMBUCO,Mata Atlântica,-8.366383465346535,-35.456270841584164,7.0677447,Médio,0.12053668025532308,-0.992708874098054,0.7165625,23.859375
AMARAL FERRADOR,RIO GRANDE DO SUL,Pampa,-30.808453066666665,-52.325032533333335,3.859347,Baixo,0.12053668025532308,-0.992708874098054,1.5113333333333334,4.044444444444444
AMARALINA,GOIÁS,Cerrado,-13.840576538869263,-49.55244665547702,21.956066,Alto,0.12053668025532308,-0.992708874098054,12.557469879518072,18.42168674698795
AMARANTE,PIAUÍ,Caatinga,-6.353913778264039,-42.775085329868716,17.497873,Alto,0.12053668025532308,-0.992708874098054,5.788701298701299,30.714285714285715
AMARANTE DO MARANHÃO,MARANHÃO,Amazônia,-5.100390755724118,-46.59911936662453,25.899927,Alto,0.12053668025532308,-0.992708874098054,39.289391634980994,33.67680608365019
AMARGOSA,BAHIA,Mata Atlântica,-13.021600537634408,-39.683730365591394,10.23827,Médio,0.12053668025532308,-0.992708874098054,0.582027027027027,18.675675675675677
AMATURÁ,AMAZONAS,Amazônia,-3.332696584680253,-68.28093177723113,5.1842313,Médio,0.12053668025532308,-0.992708874098054,38.77701298701299,2.103896103896104
AMERICANA,SÃO PAULO,Cerrado,-22.718070609418277,-47.2890851468144,11.5792675,Alto,0.12053668025532308,-0.992708874098054,2.9431818181818183,8.420454545454545
AMETISTA DO SUL,RIO GRANDE DO SUL,Mata Atlântica,-27.358386923076925,-53.199408076923085,5.5577607,Médio,0.12053668025532308,-0.992708874098054,2.2475,6.5
AMONTADA,CEARÁ,Caatinga,-3.1869877948034655,-39.76581692338439,14.364506,Alto,0.12053668025532308,-0.992708874098054,2.550204081632653,47.214285714285715
AMORINÓPOLIS,GOIÁS,Cerrado,-16.66750262015504,-51.08807249612402,16.059607,Alto,0.12053668025532308,-0.992708874098054,2.5962068965517244,16.413793103448278
AMPARO,PARAÍBA,Caatinga,-7.561388516129032,-37.03862483225807,10.807223,Médio,0.12053668025532308,-0.992708874098054,1.2521311475409835,19.90983606557377
AMPÉRE,PARANÁ,Mata Atlântica,-25.947477254901965,-53.446835294117655,4.895948,Baixo,0.12053668025532308,-0.992708874098054,0.7873529411764706,4.647058823529412
AMÉLIA RODRIGUES,BAHIA,Mata Atlântica,-12.425427687074832,-38.71343258503401,9.092458,Médio,0.12053668025532308,-0.992708874098054,1.949423076923077,11.26923076923077
AMÉRICA DOURADA,BAHIA,Caatinga,-11.416376500611994,-41.51854570379437,12.084259,Alto,0.12053668025532308,-0.992708874098054,1.452521739130435,41.06956521739131
ANADIA,ALAGOAS,Mata Atlântica,-9.677987272727272,-36.31840629090909,20.017008,Alto,0.12053668025532308,-0.992708874098054,0.0975,27.21875
ANAGÉ,BAHIA,Caatinga,-14.579300106647699,-40.94828254425881,12.1602745,Alto,0.12053668025532308,-0.992708874098054,8.444478527607362,24.312883435582823
ANAHY,PARANÁ,Mata Atlântica,-24.637182857142857,-53.14656785714286,8.57856,Médio,0.12053668025532308,-0.992708874098054,6.4375,4.25
ANANÁS,TOCANTINS,Amazônia,-6.184805337365592,-48.192388104838706,17.609903,Alto,0.12053668025532308,-0.992708874098054,16.861479289940828,11.479289940828401
ANAPU,PARÁ,Amazônia,-3.42501642943802,-51.37722643429093,19.650288,Alto,0.12053668025532308,-0.992708874098054,179.4843537414966,11.040816326530612
ANAPURUS,MARANHÃO,Cerrado,-3.531110762685644,-43.12170476516089,21.662298,Alto,0.12053668025532308,-0.992708874098054,10.12063492063492,26.634920634920636
ANASTÁCIO,MATO GROSSO DO SUL,Cerrado,-20.705408323279933,-55.82452137511783,14.747181,Alto,0.12053668025532308,-0.992708874098054,21.728928571428572,7.335714285714285
ANAURILÂNDIA,MATO GROSSO DO SUL,Cerrado,-21.965029343470476,-52.889905849731676,16.203598,Alto,0.12053668025532308,-0.992708874098054,10.250441176470588,6.0588235294117645
ANCHIETA,ESPÍRITO SANTO,Mata Atlântica,-20.740390438596492,-40.66837359649123,6.4718866,Médio,0.12053668025532308,-0.992708874098054,0.9274647887323942,9.80281690140845
ANDARAÍ,BAHIA,Caatinga,-12.652850698974836,-41.227409454799655,13.490086,Alto,0.12053668025532308,-0.992708874098054,4.152474226804124,39.48453608247423
ANDIRÁ,PARANÁ,Mata Atlântica,-23.041950793333335,-50.274980053333344,17.399733,Alto,0.12053668025532308,-0.992708874098054,1.1290697674418606,7.255813953488372
ANDORINHA,BAHIA,Caatinga,-10.305439304703478,-39.885555398773015,14.997466,Alto,0.12053668025532308,-0.992708874098054,2.3998837209302324,39.16279069767442
ANDRADINA,SÃO PAULO,Mata Atlântica,-20.780849058316214,-51.29120850472278,25.893959,Alto,0.12053668025532308,-0.992708874098054,39.72905405405405,9.175675675675675
ANDRELÂNDIA,MINAS GERAIS,Mata Atlântica,-21.73643125263158,-44.26631291950466,9.818801,Médio,0.12053668025532308,-0.992708874098054,9.472457627118644,11.457627118644067
ANDRÉ DA ROCHA,RIO GRANDE DO SUL,Mata Atlântica,-28.58913987012987,-51.4616348051948,5.219267,Médio,0.12053668025532308,-0.992708874098054,0.13428571428571429,5.666666666666667
ANGATUBA,SÃO PAULO,Cerrado,-23.445950699248122,-48.55979534586466,6.8498564,Médio,0.12053668025532308,-0.992708874098054,1.5616666666666668,7.782051282051282
ANGELIM,PERNAMBUCO,Mata Atlântica,-8.875152288135594,-36.27641872033898,8.75474,Médio,0.12053668025532308,-0.992708874098054,0.19782608695652174,18.67391304347826
ANGELINA,SANTA CATARINA,Mata Atlântica,-27.54922367088608,-49.102384873417726,4.9741592,Médio,0.12053668025532308,-0.992708874098054,2.2474074074074073,5.518518518518518
ANGELÂNDIA,MINAS GERAIS,Cerrado,-17.68038233962264,-42.303991584905646,12.545921,Alto,0.12053668025532308,-0.992708874098054,1.5426923076923076,33.14102564102564
ANGICAL,BAHIA,Cerrado,-11.988576381811058,-44.71629061740495,23.04097,Alto,0.12053668025532308,-0.992708874098054,14.802866666666665,33.60666666666667
ANGICAL DO PIAUÍ,PIAUÍ,Caatinga,-6.106645000000002,-42.74549839550074,17.062712,Alto,0.12053668025532308,-0.992708874098054,6.8545070422535215,16.3943661971831
ANGICO,TOCANTINS,Cerrado,-6.412290489913544,-47.88370529106628,15.835448,Alto,0.12053668025532308,-0.992708874098054,6.167397260273973,13.493150684931507
ANGICOS,RIO GRANDE DO NORTE,Caatinga,-5.650047986842107,-36.532481995614035,9.097434,Médio,0.12053668025532308,-0.992708874098054,0.3211764705882353,26.205882352941178
ANGRA DOS REIS,RIO DE JANEIRO,Mata Atlântica,-22.993879800000006,-44.316472000000005,4.8260098,Baixo,0.12053668025532308,-0.992708874098054,1.3695238095238096,1.1904761904761905
ANGUERA,BAHIA,Mata Atlântica,-12.213694444444448,-39.13034488888889,10.444336,Médio,0.12053668025532308,-0.992708874098054,0.462,19.17142857142857
ANGÉLICA,MATO GROSSO DO SUL,Mata Atlântica,-22.076164260162603,-53.802004077816484,16.125986,Alto,0.12053668025532308,-0.992708874098054,14.150689655172414,5.241379310344827
ANHEMBI,SÃO PAULO,Cerrado,-22.850950341645884,-48.19604496508728,15.498653,Alto,0.12053668025532308,-0.992708874098054,8.417857142857143,9.0
ANHUMAS,SÃO PAULO,Mata Atlântica,-22.367307599999997,-51.43242120000001,18.922049,Alto,0.12053668025532308,-0.992708874098054,0.6426666666666667,7.666666666666667
ANICUNS,GOIÁS,Cerrado,-16.365488514590748,-49.97009648256229,25.02073,Alto,0.12053668025532308,-0.992708874098054,7.977157894736841,26.49473684210526
ANITA GARIBALDI,SANTA CATARINA,Mata Atlântica,-27.73585640468227,-51.067229749163864,6.5875473,Médio,0.12053668025532308,-0.992708874098054,2.303707865168539,5.202247191011236
ANITÁPOLIS,SANTA CATARINA,Mata Atlântica,-27.899793288888887,-49.13253675555556,4.718344,Baixo,0.12053668025532308,-0.992708874098054,1.7391228070175437,5.0
ANORI,AMAZONAS,Amazônia,-3.8886903956228953,-61.79303495791241,9.684376,Médio,0.12053668025532308,-0.992708874098054,24.783521126760565,4.408450704225352
ANTA GORDA,RIO GRANDE DO SUL,Mata Atlântica,-28.981301904761906,-51.99837654761906,4.216005,Baixo,0.12053668025532308,-0.992708874098054,0.7752777777777777,4.972222222222222
ANTAS,BAHIA,Caatinga,-10.403395206611568,-38.30587449586776,12.2062235,Alto,0.12053668025532308,-0.992708874098054,0.43390243902439024,24.536585365853657
ANTONINA DO NORTE,CEARÁ,Caatinga,-6.763197535714287,-39.996092894642864,19.034498,Alto,0.12053668025532308,-0.992708874098054,0.36859375,36.890625
ANTÔNIO ALMEIDA,PIAUÍ,Cerrado,-7.224928126820034,-44.1907390738206,20.38432,Alto,0.12053668025532308,-0.992708874098054,6.94575,29.216666666666665
ANTÔNIO CARDOSO,BAHIA,Mata Atlântica,-12.374989819277108,-39.152316445783136,9.080022,Médio,0.12053668025532308,-0.992708874098054,0.6055172413793103,15.068965517241379
ANTÔNIO CARLOS,MINAS GERAIS,Mata Atlântica,-21.378063210656737,-43.78065471871128,10.843274,Médio,0.12053668025532308,-0.992708874098054,5.360888888888889,22.533333333333335
ANTÔNIO GONÇALVES,BAHIA,Caatinga,-10.628077223650383,-40.397430748071976,13.963127,Alto,0.12053668025532308,-0.992708874098054,2.5084375,27.947916666666668
ANTÔNIO JOÃO,MATO GROSSO DO SUL,Cerrado,-22.218502970496445,-56.04230697134752,10.025308,Médio,0.12053668025532308,-0.992708874098054,11.82203125,8.1640625
ANTÔNIO MARTINS,RIO GRANDE DO NORTE,Caatinga,-6.2185195093457954,-37.86927560747664,13.054806,Alto,0.12053668025532308,-0.992708874098054,2.5149999999999997,43.958333333333336
ANTÔNIO OLINTO,PARANÁ,Mata Atlântica,-25.93681625441695,-50.09936643109541,7.28557,Médio,0.12053668025532308,-0.992708874098054,2.2218032786885247,6.557377049180328
ANTÔNIO PRADO,RIO GRANDE DO SUL,Mata Atlântica,-28.881622368421052,-51.29481736842106,4.6719255,Baixo,0.12053668025532308,-0.992708874098054,0.0512,4.36
ANÁPOLIS,GOIÁS,Cerrado,-16.331026131726905,-48.953084860240956,15.413195,Alto,0.12053668025532308,-0.992708874098054,4.1790990990990995,29.00900900900901
APARECIDA,PARAÍBA,Caatinga,-6.778032177293935,-38.06572202488335,14.0461,Alto,0.12053668025532308,-0.992708874098054,1.535658914728682,25.62015503875969
APARECIDA DE GOIÂNIA,GOIÁS,Cerrado,-16.807034627118647,-49.25113827770537,15.483767,Alto,0.12053668025532308,-0.992708874098054,2.221648351648352,33.79120879120879
APARECIDA DO RIO NEGRO,TOCANTINS,Cerrado,-10.00467096685083,-48.022364629392264,21.738405,Alto,0.12053668025532308,-0.992708874098054,17.604817518248176,26.182481751824817
APARECIDA DO TABOADO,MATO GROSSO DO SUL,Cerrado,-20.082285030112047,-51.34027123179274,19.915056,Alto,0.12053668025532308,-0.992708874098054,5.293225806451614,9.167741935483871
APIACÁS,MATO GROSSO,Amazônia,-9.247232763855818,-57.6417233755237,26.546385,Alto,0.12053668025532308,-0.992708874098054,298.4081679389313,16.30534351145038
APIAÍ,SÃO PAULO,Mata Atlântica,-24.426881707446807,-48.85575404787233,5.7286243,Médio,0.12053668025532308,-0.992708874098054,1.6696,7.8
APICUM-AÇU,MARANHÃO,Amazônia,-1.5870293324061198,-45.09816077885953,15.088294,Alto,0.12053668025532308,-0.992708874098054,1.875,23.46875
APIÚNA,SANTA CATARINA,Mata Atlântica,-27.138316359832636,-49.39367122175731,4.595637,Baixo,0.12053668025532308,-0.992708874098054,3.5633333333333335,4.6
APODI,RIO GRANDE DO NORTE,Caatinga,-5.513080788031723,-37.811504290555135,15.030445,Alto,0.12053668025532308,-0.992708874098054,5.10387323943662,30.176056338028168
APORÁ,BAHIA,Caatinga,-11.643605862068966,-38.19482965517241,8.432499,Médio,0.12053668025532308,-0.992708874098054,1.0694594594594595,13.121621621621621
APORÉ,GOIÁS,Cerrado,-18.724807933656958,-52.089081552589,23.584038,Alto,0.12053668025532308,-0.992708874098054,13.900695652173912,16.47826086956522
APUAREMA,BAHIA,Mata Atlântica,-13.805973636363635,-39.77053127272727,8.691602,Médio,0.12053668025532308,-0.992708874098054,0.050666666666666665,22.066666666666666
APUCARANA,PARANÁ,Mata Atlântica,-23.583220215633414,-51.44844950673855,9.054674,Médio,0.12053668025532308,-0.992708874098054,1.076103896103896,8.415584415584416
APUIARÉS,CEARÁ,Caatinga,-3.948426272545089,-39.35329464929858,12.437687,Alto,0.12053668025532308,-0.992708874098054,1.262394366197183,50.394366197183096
APUÍ,AMAZONAS,Amazônia,-6.999152871558651,-59.548863257494375,31.812092,Alto,0.12053668025532308,-0.992708874098054,1615.5096621621622,9.41891891891892
AQUIDABÃ,SERGIPE,Mata Atlântica,-10.2408816,-37.064086689999996,14.757969,Alto,0.12053668025532308,-0.992708874098054,3.0392063492063492,10.619047619047619
AQUIDAUANA,MATO GROSSO DO SUL,Cerrado,-19.939750993524385,-55.80589446734639,36.952003,Alto,0.12053668025532308,-0.992708874098054,248.2207608695652,13.021739130434783
AQUIRAZ,CEARÁ,Caatinga,-3.9776683851851873,-38.38545908074073,7.8164425,Médio,0.12053668025532308,-0.992708874098054,1.6635454545454547,8.881818181818181
ARABUTÃ,SANTA CATARINA,Mata Atlântica,-27.14026061224489,-52.168605918367355,5.3130107,Médio,0.12053668025532308,-0.992708874098054,1.8676,4.92
ARACAJU,SERGIPE,Mata Atlântica,-11.03539945054945,-37.108569120879125,7.8006105,Médio,0.12053668025532308,-0.992708874098054,1.0048780487804878,1.975609756097561
ARACATI,CEARÁ,Caatinga,-4.671344267513313,-37.69085871159361,12.624497,Alto,0.12053668025532308,-0.992708874098054,5.134222222222222,26.007407407407406
ARACATU,BAHIA,Caatinga,-14.384818146769483,-41.38681279925551,13.517474,Alto,0.12053668025532308,-0.992708874098054,13.814684684684686,26.783783783783782
ARACI,BAHIA,Caatinga,-11.177997090909088,-39.11048534727274,11.579886,Alto,0.12053668025532308,-0.992708874098054,1.8034905660377358,24.99056603773585
ARACOIABA,CEARÁ,Caatinga,-4.459997800490598,-38.7423891210139,13.023197,Alto,0.12053668025532308,-0.992708874098054,1.2958762886597939,44.02061855670103
ARACRUZ,ESPÍRITO SANTO,Mata Atlântica,-19.730956165258206,-40.11982096431925,13.468875,Alto,0.12053668025532308,-0.992708874098054,4.978451612903226,16.496774193548386
ARAGARÇAS,GOIÁS,Cerrado,-15.950232144285712,-52.16703217000001,19.079649,Alto,0.12053668025532308,-0.992708874098054,8.56530303030303,23.984848484848484
ARAGOMINAS,TOCANTINS,Amazônia,-6.7964145959104165,-48.72372777896788,10.860659,Médio,0.12053668025532308,-0.992708874098054,11.21102564102564,8.76923076923077
ARAGUACEMA,TOCANTINS,Cerrado,-9.023768271374653,-49.566133610465954,23.747559,Alto,0.12053668025532308,-0.992708874098054,48.73774647887324,23.098591549295776
ARAGUAIANA,MATO GROSSO,Cerrado,-15.002875206669879,-51.76610664373895,30.891703,Alto,0.12053668025532308,-0.992708874098054,64.91472972972973,19.905405405405407
ARAGUANÃ,MARANHÃO,Amazônia,-3.077384251857093,-45.78374822108241,17.744087,Alto,0.12053668025532308,-0.992708874098054,10.009401709401711,21.70940170940171
ARAGUAPAZ,GOIÁS,Cerrado,-15.109956838407495,-50.338857261826696,25.488245,Alto,0.12053668025532308,-0.992708874098054,24.072643678160922,16.919540229885058
ARAGUARI,MINAS GERAIS,Mata Atlântica,-18.582467776059566,-48.309638854524636,20.826698,Alto,0.12053668025532308,-0.992708874098054,5.034832535885167,24.789473684210527
ARAGUATINS,TOCANTINS,Amazônia,-5.630552766111284,-48.16234381923921,19.873474,Alto,0.12053668025532308,-0.992708874098054,17.90758139534884,11.530232558139534
ARAGUAÇU,TOCANTINS,Cerrado,-12.877357478043908,-49.63849438123753,27.826372,Alto,0.12053668025532308,-0.992708874098054,26.529349593495937,29.75609756097561
ARAGUAÍNA,TOCANTINS,Amazônia,-7.30852678416794,-48.85124936431228,16.085344,Alto,0.12053668025532308,-0.992708874098054,15.505324675324676,18.415584415584416
ARAIOSES,MARANHÃO,Caatinga,-2.9773826434034407,-41.91207714483748,18.90724,Alto,0.12053668025532308,-0.992708874098054,11.744683544303797,12.253164556962025
ARAL MOREIRA,MATO GROSSO DO SUL,Mata Atlântica,-22.926419364741637,-55.49960620972642,14.178166,Alto,0.12053668025532308,-0.992708874098054,11.824153846153846,7.369230769230769
ARAMARI,BAHIA,Caatinga,-11.994642608695653,-38.48042869565218,6.434166,Médio,0.12053668025532308,-0.992708874098054,0.0,14.710526315789474
ARAME,MARANHÃO,Amazônia,-4.999725704921911,-45.95114863445337,25.745974,Alto,0.12053668025532308,-0.992708874098054,54.483518518518515,30.382716049382715
ARANDU,SÃO PAULO,Cerrado,-23.18035286885246,-49.10033319672131,9.560529,Médio,0.12053668025532308,-0.992708874098054,4.433636363636364,6.606060606060606
ARAPIRACA,ALAGOAS,Caatinga,-9.716728831168831,-36.669024688311694,20.71325,Alto,0.12053668025532308,-0.992708874098054,2.1203125,24.65625
ARAPOEMA,TOCANTINS,Amazônia,-7.731978798102268,-48.938915869267255,13.799372,Alto,0.12053668025532308,-0.992708874098054,13.904141414141414,14.343434343434344
ARAPONGAS,PARANÁ,Mata Atlântica,-23.43898775,-51.43377183673468,9.046336,Médio,0.12053668025532308,-0.992708874098054,0.7166233766233766,7.181818181818182
ARAPUÁ,MINAS GERAIS,Cerrado,-19.05626864179105,-46.149045223880606,10.826714,Médio,0.12053668025532308,-0.992708874098054,1.8812499999999999,22.541666666666668
ARAQUARI,SANTA CATARINA,Mata Atlântica,-26.48236020618557,-48.758748247422666,3.9095123,Baixo,0.12053668025532308,-0.992708874098054,2.5479166666666666,0.375
ARARA,PARAÍBA,Caatinga,-6.864814285714287,-35.709388775510206,5.886518,Médio,0.12053668025532308,-0.992708874098054,0.2232,12.84
ARARANGUÁ,SANTA CATARINA,Mata Atlântica,-28.965793980582525,-49.50273214563108,5.19177,Médio,0.12053668025532308,-0.992708874098054,2.900961538461538,3.019230769230769
ARARAQUARA,SÃO PAULO,Cerrado,-21.815713935930745,-48.191142273160175,20.25232,Alto,0.12053668025532308,-0.992708874098054,6.059099099099099,10.153153153153154
ARARENDÁ,CEARÁ,Caatinga,-4.771681559633026,-40.7768701559633,15.048739,Alto,0.12053668025532308,-0.992708874098054,5.141538461538462,33.15384615384615
ARARIPE,CEARÁ,Caatinga,-7.240168350724637,-40.063142930434786,20.195343,Alto,0.12053668025532308,-0.992708874098054,5.671555555555555,33.93333333333333
ARARIPINA,PERNAMBUCO,Caatinga,-7.6070545,-40.476699731778446,17.52618,Alto,0.12053668025532308,-0.992708874098054,4.850223880597015,38.58955223880597
ARARUAMA,RIO DE JANEIRO,Mata Atlântica,-22.724385395116528,-42.284619695893454,7.7123747,Médio,0.12053668025532308,-0.992708874098054,4.110796460176991,9.893805309734514
ARARUNA,PARANÁ,Mata Atlântica,-23.978025174825177,-52.57989181818182,15.454628,Alto,0.12053668025532308,-0.992708874098054,1.290813953488372,23.86046511627907
ARATACA,BAHIA,Mata Atlântica,-15.242403571428577,-39.41951128571428,9.175864,Médio,0.12053668025532308,-0.992708874098054,0.7181578947368421,12.868421052631579
ARATIBA,RIO GRANDE DO SUL,Mata Atlântica,-27.382450333333338,-52.297810999999996,4.650167,Baixo,0.12053668025532308,-0.992708874098054,0.16861111111111113,4.888888888888889
ARATUBA,CEARÁ,Caatinga,-4.432234655870445,-39.022589028340086,11.246093,Alto,0.12053668025532308,-0.992708874098054,0.5453061224489795,47.89795918367347
ARATUÍPE,BAHIA,Mata Atlântica,-13.098125824175828,-39.07366725274725,7.4107943,Médio,0.12053668025532308,-0.992708874098054,0.2706382978723404,11.829787234042554
ARAUCÁRIA,PARANÁ,Mata Atlântica,-25.576072752808983,-49.40862210393259,5.2968187,Médio,0.12053668025532308,-0.992708874098054,3.5703809523809524,5.019047619047619
ARAUÁ,SERGIPE,Mata Atlântica,-11.2676025,-37.60541124999999,7.3897457,Médio,0.12053668025532308,-0.992708874098054,0.48736842105263156,14.421052631578947
ARAXÁ,MINAS GERAIS,Cerrado,-19.645647531845654,-46.999056432357044,13.846445,Alto,0.12053668025532308,-0.992708874098054,8.045894736842106,28.36842105263158
ARAÇAGI,PARAÍBA,Caatinga,-6.842566906077351,-35.36839043646409,13.683324,Alto,0.12053668025532308,-0.992708874098054,0.3045054945054945,23.923076923076923
ARAÇARIGUAMA,SÃO PAULO,Mata Atlântica,-23.434941426136376,-47.06524894886363,3.588643,Baixo,0.12053668025532308,-0.992708874098054,6.929615384615384,9.282051282051283
ARAÇATUBA,SÃO PAULO,Mata Atlântica,-21.11017440083218,-50.53859537309294,20.605268,Alto,0.12053668025532308,-0.992708874098054,4.8698958333333335,8.645833333333334
ARAÇOIABA,PERNAMBUCO,Mata Atlântica,-7.785562628205129,-35.0790486474359,11.272602,Alto,0.12053668025532308,-0.992708874098054,0.21926829268292683,29.634146341463413
ARAÇU,GOIÁS,Cerrado,-16.378747999999998,-49.69237400000001,18.439873,Alto,0.12053668025532308,-0.992708874098054,0.7407142857142857,41.857142857142854
ARAÇUAÍ,MINAS GERAIS,Mata Atlântica,-16.916642757787322,-41.968375310418914,14.713163,Alto,0.12053668025532308,-0.992708874098054,15.789159663865547,25.11764705882353
ARAÇÁS,BAHIA,Mata Atlântica,-12.197254905660374,-38.21370920754717,7.484874,Médio,0.12053668025532308,-0.992708874098054,0.8030487804878048,13.365853658536585
ARAÚJOS,MINAS GERAIS,Cerrado,-19.873880529100532,-45.1685572010582,12.771632,Alto,0.12053668025532308,-0.992708874098054,1.082941176470588,31.941176470588236
ARCOS,MINAS GERAIS,Cerrado,-20.28560142857144,-45.58563224025972,10.947537,Alto,0.12053668025532308,-0.992708874098054,2.9426315789473687,16.782894736842106
ARCOVERDE,PERNAMBUCO,Caatinga,-8.376361511111112,-37.00225651111112,9.924927,Médio,0.12053668025532308,-0.992708874098054,1.1907777777777777,19.433333333333334
AREADO,MINAS GERAIS,Mata Atlântica,-21.330138315789476,-46.16110230526314,10.380167,Médio,0.12053668025532308,-0.992708874098054,5.051428571428572,15.5
AREALVA,SÃO PAULO,Cerrado,-22.09339226633165,-49.0148093567839,17.603914,Alto,0.12053668025532308,-0.992708874098054,3.5444827586206893,7.086206896551724
AREIA,PARAÍBA,Caatinga,-6.95010253968254,-35.68803444444444,8.689615,Médio,0.12053668025532308,-0.992708874098054,1.1185454545454547,25.09090909090909
AREIA BRANCA,RIO GRANDE DO NORTE,Caatinga,-5.01077701195219,-37.0074503187251,17.973402,Alto,0.12053668025532308,-0.992708874098054,11.51105882352941,18.905882352941177
AREIA DE BARAÚNAS,PARAÍBA,Caatinga,-7.085786666666667,-36.962442499999995,13.219554,Alto,0.12053668025532308,-0.992708874098054,1.031111111111111,35.166666666666664
AREIAS,SÃO PAULO,Mata Atlântica,-22.733329221925143,-44.71695610160428,6.926051,Médio,0.12053668025532308,-0.992708874098054,2.8971186440677967,9.305084745762711
ARENÁPOLIS,MATO GROSSO,Amazônia,-14.486028913333335,-56.86167579333334,20.711021,Alto,0.12053668025532308,-0.992708874098054,6.5675675675675675,17.5
ARENÓPOLIS,GOIÁS,Cerrado,-16.355749274626863,-51.52161360199005,17.110567,Alto,0.12053668025532308,-0.992708874098054,8.429830508474577,15.474576271186441
ARGIRITA,MINAS GERAIS,Mata Atlântica,-21.62106225128205,-42.81016646153846,8.241759,Médio,0.12053668025532308,-0.992708874098054,0.5853333333333333,10.566666666666666
ARICANDUVA,MINAS GERAIS,Mata Atlântica,-17.88143299999999,-42.61221107862408,14.92735,Alto,0.12053668025532308,-0.992708874098054,1.8651578947368421,24.13684210526316
ARINOS,MINAS GERAIS,Cerrado,-15.71433335293085,-46.03680152948403,17.795033,Alto,0.12053668025532308,-0.992708874098054,17.68316129032258,30.496774193548386
ARIPUANÃ,MATO GROSSO,Amazônia,-9.912284744443287,-60.01050796826407,26.12625,Alto,0.12053668025532308,-0.992708874098054,404.31011363636367,14.272727272727273
ARIQUEMES,RONDÔNIA,Amazônia,-9.946224185533964,-63.09245437367262,16.621965,Alto,0.12053668025532308,-0.992708874098054,44.81630769230769,13.915384615384616
ARIRANHA,SÃO PAULO,Mata Atlântica,-21.195346981651376,-48.778775876146796,21.914751,Alto,0.12053668025532308,-0.992708874098054,6.647027027027027,12.135135135135135
ARMAZÉM,SANTA CATARINA,Mata Atlântica,-28.224085000000002,-49.00945825581394,4.447756,Baixo,0.12053668025532308,-0.992708874098054,4.331470588235295,4.676470588235294
ARMAÇÃO DOS BÚZIOS,RIO DE JANEIRO,Mata Atlântica,-22.77588072916667,-41.9696503125,5.969419,Médio,0.12053668025532308,-0.992708874098054,1.2286666666666666,0.0
ARNEIROZ,CEARÁ,Caatinga,-6.207078899297423,-40.09561385245902,18.54223,Alto,0.12053668025532308,-0.992708874098054,0.4835616438356164,49.57534246575342
AROEIRAS,PARAÍBA,Caatinga,-7.534963393162392,-35.677255475783475,7.0409236,Médio,0.12053668025532308,-0.992708874098054,1.1123170731707317,22.4390243902439
ARRAIAL DO CABO,RIO DE JANEIRO,Mata Atlântica,-22.937038571428573,-42.150466,6.9448805,Médio,0.12053668025532308,-0.992708874098054,1.6981249999999999,7.375
ARRAIAS,TOCANTINS,Cerrado,-12.788808785973247,-47.046892771623554,31.646814,Alto,0.12053668025532308,-0.992708874098054,127.35418918918917,31.533783783783782
ARROIO DO MEIO,RIO GRANDE DO SUL,Mata Atlântica,-29.35414513043478,-51.9487762173913,4.6233253,Baixo,0.12053668025532308,-0.992708874098054,1.2390909090909092,4.909090909090909
ARROIO DO PADRE,RIO GRANDE DO SUL,Pampa,-31.450392307692308,-52.40772692307692,3.0710816,Baixo,0.12053668025532308,-0.992708874098054,0.096,4.45
ARROIO DOS RATOS,RIO GRANDE DO SUL,Pampa,-30.22195201298702,-51.762351681818195,4.412578,Baixo,0.12053668025532308,-0.992708874098054,1.627659574468085,4.808510638297872
ARROIO GRANDE,RIO GRANDE DO SUL,Pampa,-32.215781310043674,-53.11740912227076,4.782029,Baixo,0.12053668025532308,-0.992708874098054,7.251951219512196,4.097560975609756
ARROIO TRINTA,SANTA CATARINA,Mata Atlântica,-26.920254090909086,-51.338255227272725,5.403558,Médio,0.12053668025532308,-0.992708874098054,0.18825,5.975
ARTUR NOGUEIRA,SÃO PAULO,Cerrado,-22.549843006802718,-47.12319788435373,8.447015,Médio,0.12053668025532308,-0.992708874098054,0.5742592592592592,8.203703703703704
ARUANÃ,GOIÁS,Cerrado,-14.695916236187845,-50.968455982044205,22.325365,Alto,0.12053668025532308,-0.992708874098054,11.477410714285714,21.714285714285715
ARUJÁ,SÃO PAULO,Mata Atlântica,-23.39018726804124,-46.33176835051546,2.677607,Baixo,0.12053668025532308,-0.992708874098054,3.0777333333333337,8.28
ARVOREDO,SANTA CATARINA,Mata Atlântica,-27.082673611111108,-52.444471111111106,4.21921,Baixo,0.12053668025532308,-0.992708874098054,0.061764705882352944,4.0
ARVOREZINHA,RIO GRANDE DO SUL,Mata Atlântica,-28.85283,-52.19242844155843,5.7542887,Médio,0.12053668025532308,-0.992708874098054,1.9414634146341465,5.024390243902439
ARÊS,RIO GRANDE DO NORTE,Mata Atlântica,-6.190784685314685,-35.22929818531468,25.95676,Alto,0.12053668025532308,-0.992708874098054,2.4625862068965514,25.913793103448278
ASPÁSIA,SÃO PAULO,Mata Atlântica,-20.184637345454547,-50.731322718181815,21.224977,Alto,0.12053668025532308,-0.992708874098054,4.9887500000000005,11.25
ASSARÉ,CEARÁ,Caatinga,-6.92366942393509,-39.86789377849898,21.081816,Alto,0.12053668025532308,-0.992708874098054,2.1419,37.26
ASSAÍ,PARANÁ,Mata Atlântica,-23.405335029535866,-50.856416679324894,10.312285,Médio,0.12053668025532308,-0.992708874098054,3.142280701754386,7.491228070175438
ASSIS BRASIL,ACRE,Amazônia,-10.751634891891896,-69.58427158648651,12.208392,Alto,0.12053668025532308,-0.992708874098054,82.6475238095238,8.39047619047619
ASSIS CHATEAUBRIAND,PARANÁ,Mata Atlântica,-24.392508198198197,-53.56473963963963,8.634946,Médio,0.12053668025532308,-0.992708874098054,1.7602222222222221,4.022222222222222
ASSUNÇÃO,PARAÍBA,Caatinga,-7.061889523809524,-36.719697619047615,7.7616997,Médio,0.12053668025532308,-0.992708874098054,0.021875,26.0625
ASSUNÇÃO DO PIAUÍ,PIAUÍ,Caatinga,-5.821161265995685,-41.0344169759166,16.72149,Alto,0.12053668025532308,-0.992708874098054,2.5216279069767444,47.2906976744186
ASTORGA,PARANÁ,Mata Atlântica,-23.22347301075269,-51.697781505376355,12.056032,Alto,0.12053668025532308,-0.992708874098054,1.7895121951219513,6.926829268292683
ATALAIA,ALAGOAS,Mata Atlântica,-9.493583555415617,-36.037846384131,11.768051,Alto,0.12053668025532308,-0.992708874098054,3.5025974025974023,19.850649350649352
ATALAIA DO NORTE,AMAZONAS,Amazônia,-5.494335603960397,-71.62401546534657,9.503648,Médio,0.12053668025532308,-0.992708874098054,22.394343434343433,4.040404040404041
ATALÉIA,MINAS GERAIS,Mata Atlântica,-18.227513874384236,-41.22257829802954,13.337965,Alto,0.12053668025532308,-0.992708874098054,3.293762376237624,20.683168316831683
ATIBAIA,SÃO PAULO,Mata Atlântica,-23.14732903893214,-46.61146759288098,4.3136196,Baixo,0.12053668025532308,-0.992708874098054,3.479354838709677,9.623655913978494
AUGUSTINÓPOLIS,TOCANTINS,Cerrado,-5.475577966507178,-47.92780084449762,18.210075,Alto,0.12053668025532308,-0.992708874098054,2.5375,16.75
AUGUSTO CORRÊA,PARÁ,Amazônia,-1.1537688118374556,-46.52487461837454,15.115331,Alto,0.12053668025532308,-0.992708874098054,19.44875,16.173076923076923
AUGUSTO DE LIMA,MINAS GERAIS,Cerrado,-18.08305452857722,-44.22469820753954,15.7196045,Alto,0.12053668025532308,-0.992708874098054,7.19747572815534,38.650485436893206
AUGUSTO PESTANA,RIO GRANDE DO SUL,Mata Atlântica,-28.48114272727273,-53.997129090909084,3.8472393,Baixo,0.12053668025532308,-0.992708874098054,0.4,3.3
AUGUSTO SEVERO,RIO GRANDE DO NORTE,Caatinga,-5.9538224705882365,-37.33084733333333,16.14672,Alto,0.12053668025532308,-0.992708874098054,6.633833333333333,31.866666666666667
AURELINO LEAL,BAHIA,Mata Atlântica,-14.351655756457566,-39.55301774907749,9.227632,Médio,0.12053668025532308,-0.992708874098054,2.227460317460318,14.587301587301587
AURIFLAMA,SÃO PAULO,Mata Atlântica,-20.710311178160918,-50.580829718390795,19.291878,Alto,0.12053668025532308,-0.992708874098054,2.322857142857143,7.8
AURILÂNDIA,GOIÁS,Cerrado,-16.703377428125002,-50.51845539374999,18.01015,Alto,0.12053668025532308,-0.992708874098054,3.2869230769230766,28.884615384615383
AURORA,CEARÁ,Caatinga,-6.975643236180905,-38.970243013567845,16.17056,Alto,0.12053668025532308,-0.992708874098054,4.175,26.394736842105264
AURORA DO PARÁ,PARÁ,Amazônia,-2.2719634007575755,-47.829764738762634,13.05964,Alto,0.12053668025532308,-0.992708874098054,67.70866666666667,6.911111111111111
AURORA DO TOCANTINS,TOCANTINS,Cerrado,-12.692214314928423,-46.38929232822086,16.999287,Alto,0.12053668025532308,-0.992708874098054,13.200384615384618,10.166666666666666
AUTAZES,AMAZONAS,Amazônia,-3.7418105587989983,-59.461864188887546,15.998145,Alto,0.12053668025532308,-0.992708874098054,106.86095890410958,6.068493150684931
AVANHANDAVA,SÃO PAULO,Mata Atlântica,-21.40885698311445,-49.92631561913697,25.135214,Alto,0.12053668025532308,-0.992708874098054,4.3933333333333335,9.38888888888889
AVARÉ,SÃO PAULO,Cerrado,-23.042398984984985,-48.92336996246245,9.960123,Médio,0.12053668025532308,-0.992708874098054,5.657826086956523,8.641304347826088
AVAÍ,SÃO PAULO,Cerrado,-22.193609911960134,-49.32247961627908,17.922752,Alto,0.12053668025532308,-0.992708874098054,2.623448275862069,10.362068965517242
AVEIRO,PARÁ,Amazônia,-3.810093009219735,-55.73687418755336,16.919394,Alto,0.12053668025532308,-0.992708874098054,122.12163265306123,6.244897959183674
AVELINO LOPES,PIAUÍ,Cerrado,-10.147408397256005,-43.97958676021204,23.873314,Alto,0.12053668025532308,-0.992708874098054,4.403181818181818,38.55681818181818
AÇAILÂNDIA,MARANHÃO,Amazônia,-4.792783473782639,-47.469808883840116,22.63961,Alto,0.12053668025532308,-0.992708874098054,55.475094339622636,26.37735849056604
AÇU,RIO GRANDE DO NORTE,Caatinga,-5.528137819905213,-37.02151802843603,16.819399,Alto,0.12053668025532308,-0.992708874098054,17.459345794392526,37.7196261682243
AÇUCENA,MINAS GERAIS,Mata Atlântica,-19.046797196388265,-42.4444701173815,10.488363,Médio,0.12053668025532308,-0.992708874098054,2.5161111111111114,30.35185185185185
BABAÇULÂNDIA,TOCANTINS,Cerrado,-7.124839313051305,-47.81728315841587,17.424397,Alto,0.12053668025532308,-0.992708874098054,22.779999999999998,14.017391304347827
BACABAL,MARANHÃO,Amazônia,-4.095056635394457,-44.7848398034115,23.480898,Alto,0.12053668025532308,-0.992708874098054,23.920467289719625,14.425233644859814
BACURI,MARANHÃO,Amazônia,-1.686942431740614,-45.12509060494881,16.810957,Alto,0.12053668025532308,-0.992708874098054,3.255675675675676,29.62162162162162
BACURITUBA,MARANHÃO,Amazônia,-2.7327818042813457,-44.75675717125381,15.689207,Alto,0.12053668025532308,-0.992708874098054,8.820851063829787,23.78723404255319
BAGRE,PARÁ,Amazônia,-2.313020103819534,-50.24610756703411,15.471827,Alto,0.12053668025532308,-0.992708874098054,80.22319587628867,7.958762886597938
BAGÉ,RIO GRANDE DO SUL,Pampa,-31.18522192796612,-53.84617067090396,12.627845,Alto,0.12053668025532308,-0.992708874098054,20.992558139534886,5.034883720930233
BAIANÓPOLIS,BAHIA,Cerrado,-12.64183406700147,-44.481856963375805,22.7713,Alto,0.12053668025532308,-0.992708874098054,12.865185185185185,35.50617283950617
BAIXA GRANDE,BAHIA,Caatinga,-11.964387164835161,-40.16653498901099,11.073955,Alto,0.12053668025532308,-0.992708874098054,0.5218627450980392,29.00980392156863
BAIXA GRANDE DO RIBEIRO,PIAUÍ,Cerrado,-8.522509304608185,-45.133770685419066,28.19412,Alto,0.12053668025532308,-0.992708874098054,67.32537037037036,28.703703703703702
BAIXIO,CEARÁ,Caatinga,-6.7116231457800515,-38.75366120204604,16.917116,Alto,0.12053668025532308,-0.992708874098054,0.9833333333333334,36.59090909090909
BAIXO GUANDU,ESPÍRITO SANTO,Mata Atlântica,-19.463796362811788,-40.9361355328798,10.357843,Médio,0.12053668025532308,-0.992708874098054,6.622197802197802,26.23076923076923
BAIÃO,PARÁ,Amazônia,-3.011632911957951,-49.64002229540078,18.174694,Alto,0.12053668025532308,-0.992708874098054,80.09714285714286,10.7
BALBINOS,SÃO PAULO,Mata Atlântica,-21.89487148148148,-49.35377703703703,22.522936,Alto,0.12053668025532308,-0.992708874098054,3.3671428571428565,8.428571428571429
BALDIM,MINAS GERAIS,Cerrado,-19.30552218140245,-43.85106463719514,10.736716,Médio,0.12053668025532308,-0.992708874098054,1.9933333333333334,34.45454545454545
BALIZA,GOIÁS,Cerrado,-16.329512588900045,-52.46429899497738,24.900085,Alto,0.12053668025532308,-0.992708874098054,31.97215909090909,22.96590909090909
BALNEÁRIO ARROIO DO SILVA,SANTA CATARINA,Mata Atlântica,-28.980595824427485,-49.4346029923664,4.9826045,Médio,0.12053668025532308,-0.992708874098054,8.433846153846154,1.0769230769230769
BALNEÁRIO GAIVOTA,SANTA CATARINA,Mata Atlântica,-29.14392837837838,-49.594965810810805,5.011988,Médio,0.12053668025532308,-0.992708874098054,6.818823529411765,3.588235294117647
BALNEÁRIO PIÇARRAS,SANTA CATARINA,Mata Atlântica,-26.749297777777777,-48.73321222222222,3.7397397,Baixo,0.12053668025532308,-0.992708874098054,1.8866666666666667,2.0
BALNEÁRIO RINCÃO,SANTA CATARINA,Mata Atlântica,-28.818668387096775,-49.25283322580645,3.576134,Baixo,0.12053668025532308,-0.992708874098054,0.41000000000000003,4.153846153846154
BALSA NOVA,PARANÁ,Mata Atlântica,-25.495026120689666,-49.69404506609195,5.763616,Médio,0.12053668025532308,-0.992708874098054,1.3791044776119403,6.358208955223881
BALSAS,MARANHÃO,Cerrado,-8.266459199760234,-46.35827537476219,29.400541,Alto,0.12053668025532308,-0.992708874098054,119.71670454545455,28.03409090909091
BANABUIÚ,CEARÁ,Caatinga,-5.219801879619852,-38.88758733685322,14.37595,Alto,0.12053668025532308,-0.992708874098054,1.6313684210526316,43.48421052631579
BANANEIRAS,PARAÍBA,Caatinga,-6.719452475247526,-35.58478900990099,7.413377,Médio,0.12053668025532308,-0.992708874098054,0.7008695652173913,24.195652173913043
BANDEIRA,MINAS GERAIS,Mata Atlântica,-15.857808746987962,-40.55240702409638,12.121137,Alto,0.12053668025532308,-0.992708874098054,5.701724137931034,17.137931034482758
BANDEIRANTES,MATO GROSSO DO SUL,Cerrado,-19.813081303144656,-54.25184598113204,18.703947,Alto,0.12053668025532308,-0.992708874098054,10.083846153846155,8.538461538461538
BANNACH,PARÁ,Amazônia,-7.483439827751196,-50.849139388729405,16.420658,Alto,0.12053668025532308,-0.992708874098054,20.536944444444444,16.10185185185185
BANZAÊ,BAHIA,Caatinga,-10.592576104477612,-38.66774424626866,13.726763,Alto,0.12053668025532308,-0.992708874098054,2.751875,20.895833333333332
BARAÚNA,RIO GRANDE DO NORTE,Caatinga,-5.112279632981399,-37.6335430779286,11.744413,Alto,0.12053668025532308,-0.992708874098054,3.46675,34.53125
BARBACENA,MINAS GERAIS,Mata Atlântica,-21.254060440180577,-43.82579152934539,10.7297325,Médio,0.12053668025532308,-0.992708874098054,1.497282608695652,22.706521739130434
BARBALHA,CEARÁ,Caatinga,-7.3292311984435825,-39.31254820077821,16.943897,Alto,0.12053668025532308,-0.992708874098054,0.5963106796116505,26.194174757281555
BARBOSA FERRAZ,PARANÁ,Mata Atlântica,-24.088539818181818,-52.03491960000001,8.864459,Médio,0.12053668025532308,-0.992708874098054,0.7285714285714286,6.238095238095238
BARCARENA,PARÁ,Amazônia,-1.6125338576051778,-48.619955871197405,10.345137,Médio,0.12053668025532308,-0.992708874098054,21.58785046728972,4.635514018691588
BARCELONA,RIO GRANDE DO NORTE,Caatinga,-5.939709333333332,-35.883980666666666,9.013563,Médio,0.12053668025532308,-0.992708874098054,1.404,20.7
BARCELOS,AMAZONAS,Amazônia,-0.6507825876682727,-62.76248042861888,9.437716,Médio,0.12053668025532308,-0.992708874098054,48.8290756302521,4.890756302521009
BARIRI,SÃO PAULO,Cerrado,-22.008651791044777,-48.66186836815921,16.597065,Alto,0.12053668025532308,-0.992708874098054,2.7403174603174603,8.365079365079366
BARRA,BAHIA,Caatinga,-10.964224599182764,-43.29236844576523,24.097567,Alto,0.12053668025532308,-0.992708874098054,15.702392026578073,39.920265780730894
BARRA BONITA,SÃO PAULO,Cerrado,-22.503305666666662,-48.481940111111115,11.060752,Alto,0.12053668025532308,-0.992708874098054,1.6250943396226414,9.81132075471698
BARRA D'ALCÂNTARA,PIAUÍ,Caatinga,-6.543063235887099,-42.10283343044355,16.325514,Alto,0.12053668025532308,-0.992708874098054,2.8422388059701493,21.865671641791046
BARRA DA ESTIVA,BAHIA,Caatinga,-13.6436079106946,-41.0378294002205,11.414397,Alto,0.12053668025532308,-0.992708874098054,2.5094594594594595,27.9009009009009
BARRA DE GUABIRABA,PERNAMBUCO,Mata Atlântica,-8.416858512396695,-35.62568347107438,5.713347,Médio,0.12053668025532308,-0.992708874098054,0.7259183673469388,16.714285714285715
BARRA DE SANTA ROSA,PARAÍBA,Caatinga,-6.798188372093022,-36.11323341085271,8.847646,Médio,0.12053668025532308,-0.992708874098054,1.7687179487179487,30.974358974358974
BARRA DE SANTANA,PARAÍBA,Caatinga,-7.544875803571428,-35.96707508928572,7.0358515,Médio,0.12053668025532308,-0.992708874098054,0.34134615384615385,23.153846153846153
BARRA DE SANTO ANTÔNIO,ALAGOAS,Mata Atlântica,-9.380429636363637,-35.53807625454545,14.105535,Alto,0.12053668025532308,-0.992708874098054,0.7815873015873016,6.857142857142857
BARRA DE SÃO FRANCISCO,ESPÍRITO SANTO,Mata Atlântica,-18.676188556149736,-40.842818871657755,11.974276,Alto,0.12053668025532308,-0.992708874098054,0.4823943661971831,27.239436619718308
BARRA DE SÃO MIGUEL,ALAGOAS,Mata Atlântica,-9.80765057142857,-35.939303333333335,6.020925,Médio,0.12053668025532308,-0.992708874098054,1.3446153846153845,29.564102564102566
BARRA DO BUGRES,MATO GROSSO,Amazônia,-15.026947205253059,-57.649195308100964,24.464231,Alto,0.12053668025532308,-0.992708874098054,50.49125,12.22
BARRA DO CHAPÉU,SÃO PAULO,Mata Atlântica,-24.449393687150838,-49.04740184357542,6.335649,Médio,0.12053668025532308,-0.992708874098054,0.3856818181818182,7.568181818181818
BARRA DO CHOÇA,BAHIA,Mata Atlântica,-14.934155722543357,-40.59939431791906,11.364558,Alto,0.12053668025532308,-0.992708874098054,0.9412631578947369,21.473684210526315
BARRA DO CORDA,MARANHÃO,Cerrado,-5.524702393019724,-45.191778452540035,28.872772,Alto,0.12053668025532308,-0.992708874098054,91.70815028901734,25.92485549132948
BARRA DO GARÇAS,MATO GROSSO,Cerrado,-15.339136945878463,-52.68585016080808,29.621061,Alto,0.12053668025532308,-0.992708874098054,71.87738853503184,23.37579617834395
BARRA DO OURO,TOCANTINS,Cerrado,-7.669602488761902,-47.55840787047617,16.468702,Alto,0.12053668025532308,-0.992708874098054,15.21099173553719,19.975206611570247
BARRA DO QUARAÍ,RIO GRANDE DO SUL,Pampa,-30.144484855670107,-57.33479852577319,6.363117,Médio,0.12053668025532308,-0.992708874098054,1.3817391304347826,6.521739130434782
BARRA DO RIBEIRO,RIO GRANDE DO SUL,Pampa,-30.354185862068963,-51.41492034482759,3.5419888,Baixo,0.12053668025532308,-0.992708874098054,1.4947619047619047,0.0
BARRA DO RIO AZUL,RIO GRANDE DO SUL,Mata Atlântica,-27.373413684210522,-52.412152631578955,5.2699375,Médio,0.12053668025532308,-0.992708874098054,1.0032,5.52
BARRA DO ROCHA,BAHIA,Mata Atlântica,-14.09143,-39.58986153846154,8.9492655,Médio,0.12053668025532308,-0.992708874098054,0.9107142857142857,16.392857142857142
BARRA DO TURVO,SÃO PAULO,Mata Atlântica,-24.88387425206611,-48.433841818181804,6.08795,Médio,0.12053668025532308,-0.992708874098054,3.0340677966101692,5.610169491525424
BARRA DOS COQUEIROS,SERGIPE,Mata Atlântica,-10.841584366197182,-36.96276014084506,12.272393,Alto,0.12053668025532308,-0.992708874098054,14.543000000000001,0.0
BARRA LONGA,MINAS GERAIS,Mata Atlântica,-20.30042361,-43.05567948,11.491542,Alto,0.12053668025532308,-0.992708874098054,1.8307142857142857,34.67857142857143
BARRA MANSA,RIO DE JANEIRO,Mata Atlântica,-22.50141226578947,-44.183692859210545,7.2559276,Médio,0.12053668025532308,-0.992708874098054,4.679883720930233,9.151162790697674
BARRA VELHA,SANTA CATARINA,Mata Atlântica,-26.650850370370367,-48.71316925925927,4.0429173,Baixo,0.12053668025532308,-0.992708874098054,2.317894736842105,2.8947368421052633
BARRACÃO,RIO GRANDE DO SUL,Mata Atlântica,-27.746081443850283,-51.41357352941175,5.243255,Médio,0.12053668025532308,-0.992708874098054,0.6346835443037975,5.89873417721519
BARRAS,PIAUÍ,Caatinga,-4.156956216696271,-42.39000407193606,24.639448,Alto,0.12053668025532308,-0.992708874098054,27.31687898089172,26.343949044585987
BARREIRA,CEARÁ,Caatinga,-4.314472836538462,-38.634090144230775,7.5756893,Médio,0.12053668025532308,-0.992708874098054,0.1986153846153846,38.47692307692308
BARREIRAS,BAHIA,Cerrado,-12.065662603416348,-45.3138398087677,28.354412,Alto,0.12053668025532308,-0.992708874098054,47.21590909090909,35.38636363636363
BARREIRINHA,AMAZONAS,Amazônia,-3.073580518005542,-57.111879697783955,14.256908,Alto,0.12053668025532308,-0.992708874098054,46.175187969924814,5.2631578947368425
BARREIRINHAS,MARANHÃO,Cerrado,-2.986158459261014,-42.93464422181429,20.6454,Alto,0.12053668025532308,-0.992708874098054,13.935144927536232,30.579710144927535
BARREIROS,PERNAMBUCO,Mata Atlântica,-8.813219961389962,-35.22069501544401,7.241078,Médio,0.12053668025532308,-0.992708874098054,0.263768115942029,24.18840579710145
BARRETOS,SÃO PAULO,Cerrado,-20.50511415506507,-48.64611028947367,23.364822,Alto,0.12053668025532308,-0.992708874098054,11.342444444444444,20.27777777777778
BARRO,CEARÁ,Caatinga,-7.121098136850784,-38.78862833635615,17.02556,Alto,0.12053668025532308,-0.992708874098054,2.5443956043956044,18.604395604395606
BARRO ALTO,BAHIA,Caatinga,-11.858958694267518,-41.81501445859872,18.310444,Alto,0.12053668025532308,-0.992708874098054,13.685204918032786,30.118852459016395
BARRO DURO,PIAUÍ,Caatinga,-5.797646976958524,-42.50734619447004,17.904705,Alto,0.12053668025532308,-0.992708874098054,4.7037704918032786,17.049180327868854
BARRO PRETO,BAHIA,Mata Atlântica,-14.78146345238095,-39.426424523809516,8.718641,Médio,0.12053668025532308,-0.992708874098054,1.4706666666666668,13.6
BARROCAS,BAHIA,Caatinga,-11.524568387096773,-39.08406032258064,8.6846695,Médio,0.12053668025532308,-0.992708874098054,0.11750000000000001,33.1
BARROQUINHA,CEARÁ,Caatinga,-2.9888437893081754,-41.15111780660377,13.560431,Alto,0.12053668025532308,-0.992708874098054,4.244153846153846,10.461538461538462
BARROS CASSAL,RIO GRANDE DO SUL,Mata Atlântica,-29.119430754716984,-52.612763121783864,3.8322015,Baixo,0.12053668025532308,-0.992708874098054,0.3059375,5.953125
BARROSO,MINAS GERAIS,Mata Atlântica,-21.182316818181818,-43.972785384615385,10.071631,Médio,0.12053668025532308,-0.992708874098054,3.5516964285714288,13.857142857142858
BARUERI,SÃO PAULO,Mata Atlântica,-23.505042758620686,-46.864481206896556,1.4745164,Baixo,0.12053668025532308,-0.992708874098054,1.5002564102564104,6.923076923076923
BARÃO,RIO GRANDE DO SUL,Mata Atlântica,-29.394832026143785,-51.470271633986926,4.428711,Baixo,0.12053668025532308,-0.992708874098054,0.6485,5.016666666666667
BARÃO DE COCAIS,MINAS GERAIS,Mata Atlântica,-19.91155916363636,-43.48126730622008,11.546842,Alto,0.12053668025532308,-0.992708874098054,2.462233009708738,31.776699029126213
BARÃO DE COTEGIPE,RIO GRANDE DO SUL,Mata Atlântica,-27.558440208333337,-52.433475625,4.4689374,Baixo,0.12053668025532308,-0.992708874098054,0.96125,4.75
BARÃO DE GRAJAÚ,MARANHÃO,Cerrado,-6.564578402275872,-43.11544807534985,21.155128,Alto,0.12053668025532308,-0.992708874098054,15.50193832599119,34.370044052863435
BARÃO DE MELGAÇO,MATO GROSSO,Pantanal,-16.898110099894627,-56.263188783805816,55.83029,Alto,0.12053668025532308,-0.992708874098054,706.6556800000001,19.44
BARÃO DO TRIUNFO,RIO GRANDE DO SUL,Pampa,-30.420576046012265,-51.80863910429448,4.4427743,Baixo,0.12053668025532308,-0.992708874098054,1.6400000000000001,4.3580246913580245
BATAGUASSU,MATO GROSSO DO SUL,Cerrado,-21.79183017674418,-52.68825419302326,16.779594,Alto,0.12053668025532308,-0.992708874098054,6.42020618556701,5.216494845360825
BATALHA,ALAGOAS,Caatinga,-9.714121990853663,-37.09165112804878,24.248146,Alto,0.12053668025532308,-0.992708874098054,27.860613207547168,25.962264150943398
BATATAIS,SÃO PAULO,Cerrado,-20.96391821928167,-47.56282810775048,17.816029,Alto,0.12053668025532308,-0.992708874098054,12.717843137254903,13.509803921568627
BATAYPORÃ,MATO GROSSO DO SUL,Cerrado,-22.11633477272727,-53.17131045454546,15.951423,Alto,0.12053668025532308,-0.992708874098054,5.853417721518988,5.468354430379747
BATURITÉ,CEARÁ,Caatinga,-4.36108632406288,-38.85109437726723,11.336475,Alto,0.12053668025532308,-0.992708874098054,0.6211688311688311,47.25974025974026
BAURU,SÃO PAULO,Cerrado,-22.305754500600237,-49.067781378151274,16.071308,Alto,0.12053668025532308,-0.992708874098054,2.19247311827957,9.89247311827957
BAÍA DA TRAIÇÃO,PARAÍBA,Mata Atlântica,-6.664725955056179,-34.98267063483146,18.727184,Alto,0.12053668025532308,-0.992708874098054,0.85375,0.0
BAÍA FORMOSA,RIO GRANDE DO NORTE,Mata Atlântica,-6.4406664467289705,-35.04196396074765,42.12886,Alto,0.12053668025532308,-0.992708874098054,2.702962962962963,17.51851851851852
BEBEDOURO,SÃO PAULO,Cerrado,-20.918559832037328,-48.490822562986004,19.603212,Alto,0.12053668025532308,-0.992708874098054,5.689516129032258,10.71774193548387
BEBERIBE,CEARÁ,Caatinga,-4.3935256058823535,-38.10650052,13.276575,Alto,0.12053668025532308,-0.992708874098054,4.118533333333333,26.1
BELA CRUZ,CEARÁ,Caatinga,-3.033305230769231,-40.27841562081448,14.026244,Alto,0.12053668025532308,-0.992708874098054,2.360693069306931,25.22772277227723
BELA VISTA,MATO GROSSO DO SUL,Cerrado,-21.93951916023035,-56.42823637279811,15.6489105,Alto,0.12053668025532308,-0.992708874098054,28.586815286624205,7.624203821656051
BELA VISTA DA CAROBA,PARANÁ,Mata Atlântica,-25.889453333333336,-53.61711555555556,5.8097377,Médio,0.12053668025532308,-0.992708874098054,3.91,2.7142857142857144
BELA VISTA DE GOIÁS,GOIÁS,Cerrado,-16.928825954376176,-48.9545587160149,14.643104,Alto,0.12053668025532308,-0.992708874098054,2.7669318181818183,31.727272727272727
BELA VISTA DE MINAS,MINAS GERAIS,Mata Atlântica,-19.79844753191489,-43.12062514893617,9.81806,Médio,0.12053668025532308,-0.992708874098054,0.019354838709677424,52.516129032258064
BELA VISTA DO MARANHÃO,MARANHÃO,Amazônia,-3.763915070993914,-45.26150655578094,16.416668,Alto,0.12053668025532308,-0.992708874098054,4.167,9.128571428571428
BELA VISTA DO PARAÍSO,PARANÁ,Mata Atlântica,-23.028826440677967,-51.214698644067795,17.865135,Alto,0.12053668025532308,-0.992708874098054,3.6216666666666666,5.666666666666667
BELA VISTA DO PIAUÍ,PIAUÍ,Caatinga,-7.983707433862435,-41.870408941798935,12.04446,Alto,0.12053668025532308,-0.992708874098054,9.479782608695652,11.23913043478261
BELA VISTA DO TOLDO,SANTA CATARINA,Mata Atlântica,-26.423266243386237,-50.4999168783069,6.113023,Médio,0.12053668025532308,-0.992708874098054,1.4732075471698114,6.132075471698113
BELFORD ROXO,RIO DE JANEIRO,Mata Atlântica,-22.721414814814825,-43.358834074074075,6.343861,Médio,0.12053668025532308,-0.992708874098054,2.7439999999999998,0.0
BELMONTE,BAHIA,Mata Atlântica,-15.941046957177818,-39.01928353752041,13.222284,Alto,0.12053668025532308,-0.992708874098054,4.0244,8.2
BELO CAMPO,BAHIA,Mata Atlântica,-15.072166854934599,-41.20776004221166,13.215133,Alto,0.12053668025532308,-0.992708874098054,3.1052554744525547,31.18978102189781
BELO HORIZONTE,MINAS GERAIS,Mata Atlântica,-19.92155152159468,-43.93479595016612,10.885498,Médio,0.12053668025532308,-0.992708874098054,0.9633898305084746,29.5
BELO JARDIM,PERNAMBUCO,Caatinga,-8.273261138845552,-36.40318561778473,7.747048,Médio,0.12053668025532308,-0.992708874098054,3.4469811320754715,27.42452830188679
BELO MONTE,ALAGOAS,Caatinga,-9.824690239130437,-37.17344106987577,16.61846,Alto,0.12053668025532308,-0.992708874098054,8.702439024390245,23.74390243902439
BELO VALE,MINAS GERAIS,Mata Atlântica,-20.43254882232011,-44.03025159177679,11.719408,Alto,0.12053668025532308,-0.992708874098054,7.379594594594595,24.175675675675677
BELTERRA,PARÁ,Amazônia,-3.009010279613569,-54.90318409496103,17.058846,Alto,0.12053668025532308,-0.992708874098054,137.2141935483871,6.008064516129032
BELÁGUA,MARANHÃO,Cerrado,-3.1210114277684093,-43.4418595306352,22.390446,Alto,0.12053668025532308,-0.992708874098054,8.319056603773584,29.68867924528302
BELÉM,ALAGOAS,Mata Atlântica,-9.54073568627451,-36.49812901960784,16.694715,Alto,0.12053668025532308,-0.992708874098054,6.901694915254237,13.05084745762712
BELÉM DE MARIA,PERNAMBUCO,Mata Atlântica,-8.610168,-35.813784871428574,9.100188,Médio,0.12053668025532308,-0.992708874098054,3.0195999999999996,16.96
BELÉM DO BREJO DO CRUZ,PARAÍBA,Caatinga,-6.148162547770701,-37.40152416348196,16.496466,Alto,0.12053668025532308,-0.992708874098054,14.032380952380953,31.253968253968253
BELÉM DO PIAUÍ,PIAUÍ,Caatinga,-7.389157102272727,-40.98791703409092,14.855393,Alto,0.12053668025532308,-0.992708874098054,1.6515,24.925
BELÉM DO SÃO FRANCISCO,PERNAMBUCO,Caatinga,-8.615078065902573,-39.03720375071632,12.783287,Alto,0.12053668025532308,-0.992708874098054,0.6521904761904762,29.561904761904763
BENEDITO LEITE,MARANHÃO,Cerrado,-7.124614277339534,-44.559042424437436,22.901545,Alto,0.12053668025532308,-0.992708874098054,19.437266187050362,36.093525179856115
BENEDITO NOVO,SANTA CATARINA,Mata Atlântica,-26.766727272727277,-49.43512488636363,5.6800528,Médio,0.12053668025532308,-0.992708874098054,3.7825,5.5
BENJAMIN CONSTANT,AMAZONAS,Amazônia,-4.40625660869565,-69.88300182608698,6.3476887,Médio,0.12053668025532308,-0.992708874098054,30.156559139784946,2.838709677419355
BENTO DE ABREU,SÃO PAULO,Mata Atlântica,-21.405076665871118,-50.937571587112174,22.516176,Alto,0.12053668025532308,-0.992708874098054,15.07909090909091,5.2727272727272725
BENTO FERNANDES,RIO GRANDE DO NORTE,Caatinga,-5.670197970297029,-35.77215484653466,8.622857,Médio,0.12053668025532308,-0.992708874098054,1.0432857142857144,18.928571428571427
BENTO GONÇALVES,RIO GRANDE DO SUL,Mata Atlântica,-29.13586547619048,-51.520247380952384,4.3927646,Baixo,0.12053668025532308,-0.992708874098054,0.6234482758620689,2.8275862068965516
BEQUIMÃO,MARANHÃO,Amazônia,-2.4236391329479767,-44.83544110115608,11.507672,Alto,0.12053668025532308,-0.992708874098054,5.620789473684211,3.986842105263158
BERILO,MINAS GERAIS,Cerrado,-16.81161435643564,-42.50598607920792,13.113604,Alto,0.12053668025532308,-0.992708874098054,6.24,33.490196078431374
BERIZAL,MINAS GERAIS,Mata Atlântica,-15.676169395604392,-41.79278910576922,13.090983,Alto,0.12053668025532308,-0.992708874098054,1.7796385542168676,28.10843373493976
BERNARDINO BATISTA,PARAÍBA,Caatinga,-6.476236335403727,-38.56039801242236,15.506917,Alto,0.12053668025532308,-0.992708874098054,1.4325581395348836,50.46511627906977
BERNARDO DO MEARIM,MARANHÃO,Cerrado,-4.686947280939477,-44.650425020776865,21.864386,Alto,0.12053668025532308,-0.992708874098054,8.02728813559322,10.864406779661017
BERNARDO SAYÃO,TOCANTINS,Amazônia,-7.99949337792642,-48.99352192307694,12.576268,Alto,0.12053668025532308,-0.992708874098054,5.658666666666666,10.373333333333333
BERTOLÍNIA,PIAUÍ,Caatinga,-7.748543704532737,-43.79881851650809,20.33263,Alto,0.12053668025532308,-0.992708874098054,4.9895767195767196,30.43915343915344
BERTÓPOLIS,MINAS GERAIS,Mata Atlântica,-16.898830303030298,-40.56355799393939,10.4400835,Médio,0.12053668025532308,-0.992708874098054,2.8090243902439025,14.024390243902438
BERURI,AMAZONAS,Amazônia,-4.441329674657536,-61.741648969178094,10.126463,Médio,0.12053668025532308,-0.992708874098054,40.288899082568804,4.63302752293578
BETIM,MINAS GERAIS,Mata Atlântica,-19.970596067612682,-44.194296584307196,11.482217,Alto,0.12053668025532308,-0.992708874098054,3.3231205673758866,25.0
BETÂNIA,PERNAMBUCO,Caatinga,-8.25540895209581,-38.016467365269456,11.218517,Alto,0.12053668025532308,-0.992708874098054,0.8514102564102564,26.294871794871796
BEZERROS,PERNAMBUCO,Caatinga,-8.269338652173913,-35.81743651739131,6.832772,Médio,0.12053668025532308,-0.992708874098054,0.8582517482517483,22.181818181818183
BIAS FORTES,MINAS GERAIS,Mata Atlântica,-21.57913976744186,-43.78027682945737,8.44761,Médio,0.12053668025532308,-0.992708874098054,0.7028947368421052,11.578947368421053
BIGUAÇU,SANTA CATARINA,Mata Atlântica,-27.425388333333334,-48.72824083333333,4.061282,Baixo,0.12053668025532308,-0.992708874098054,2.866153846153846,4.6923076923076925
BILAC,SÃO PAULO,Mata Atlântica,-21.443863270440247,-50.47962867924528,24.68891,Alto,0.12053668025532308,-0.992708874098054,6.3195,6.75
BIRIGUI,SÃO PAULO,Mata Atlântica,-21.271502389513106,-50.336969505617965,22.558231,Alto,0.12053668025532308,-0.992708874098054,2.8293421052631578,9.81578947368421
BIRITINGA,BAHIA,Caatinga,-11.558116683937824,-38.783006373057,10.264746,Médio,0.12053668025532308,-0.992708874098054,1.595,23.933333333333334
BITURUNA,PARANÁ,Mata Atlântica,-26.162730241219965,-51.53213714602588,7.4080157,Médio,0.12053668025532308,-0.992708874098054,8.649741379310345,4.948275862068965
BLUMENAU,SANTA CATARINA,Mata Atlântica,-26.861798888888885,-49.085592000000005,5.0522056,Médio,0.12053668025532308,-0.992708874098054,7.08125,3.5625
BOA ESPERANÇA,ESPÍRITO SANTO,Mata Atlântica,-18.48291102766798,-40.350570671936765,12.794707,Alto,0.12053668025532308,-0.992708874098054,2.878934010152284,23.507614213197968
BOA ESPERANÇA DO SUL,SÃO PAULO,Cerrado,-21.920099242310325,-48.499465792207786,16.683582,Alto,0.12053668025532308,-0.992708874098054,6.954285714285715,7.824175824175824
BOA HORA,PIAUÍ,Caatinga,-4.340141398514852,-42.09204432425743,18.234789,Alto,0.12053668025532308,-0.992708874098054,2.9426666666666663,26.022222222222222
BOA NOVA,BAHIA,Mata Atlântica,-14.360215923460895,-40.20252016971715,12.116369,Alto,0.12053668025532308,-0.992708874098054,1.4525925925925927,26.064814814814813
BOA VENTURA,PARAÍBA,Caatinga,-7.4405118598382725,-38.1926505148248,15.87349,Alto,0.12053668025532308,-0.992708874098054,2.8633823529411764,21.352941176470587
BOA VENTURA DE SÃO ROQUE,PARANÁ,Mata Atlântica,-24.803528282208582,-51.55015987730062,9.107011,Médio,0.12053668025532308,-0.992708874098054,1.540769230769231,7.0
BOA VIAGEM,CEARÁ,Caatinga,-5.0890505910819215,-39.789593637227775,16.261423,Alto,0.12053668025532308,-0.992708874098054,3.4175833333333334,49.125
BOA VISTA,RORAIMA,Amazônia,3.1247195924070916,-60.73038370329562,14.749513,Alto,0.12053668025532308,-0.992708874098054,22.109814814814815,10.641975308641975
BOA VISTA DO GURUPI,MARANHÃO,Amazônia,-1.7490342584615384,-46.17277207569227,14.212281,Alto,0.12053668025532308,-0.992708874098054,12.793846153846154,13.73076923076923
BOA VISTA DO RAMOS,AMAZONAS,Amazônia,-3.0974927002889427,-57.7173710223273,11.695179,Alto,0.12053668025532308,-0.992708874098054,30.826571428571427,4.79047619047619
BOA VISTA DO SUL,RIO GRANDE DO SUL,Mata Atlântica,-29.36840295774648,-51.66254859154929,3.7782104,Baixo,0.12053668025532308,-0.992708874098054,0.6032352941176471,4.764705882352941
BOA VISTA DO TUPIM,BAHIA,Caatinga,-12.790598754595592,-40.65555542555145,12.91889,Alto,0.12053668025532308,-0.992708874098054,4.01448717948718,31.942307692307693
BOCA DA MATA,ALAGOAS,Mata Atlântica,-9.678582195364237,-36.178860834437074,22.471756,Alto,0.12053668025532308,-0.992708874098054,1.3838709677419354,29.403225806451612
BOCA DO ACRE,AMAZONAS,Amazônia,-9.01508567895153,-67.69963276841108,30.469383,Alto,0.12053668025532308,-0.992708874098054,1158.5270588235294,10.605042016806722
BOCAINA,PIAUÍ,Caatinga,-6.943834609218436,-41.338535785571146,17.595133,Alto,0.12053668025532308,-0.992708874098054,1.394949494949495,25.68686868686869
BOCAINA DE MINAS,MINAS GERAIS,Mata Atlântica,-22.18332553571429,-44.470561249999996,6.863317,Médio,0.12053668025532308,-0.992708874098054,1.9735714285714288,9.5
BOCAINA DO SUL,SANTA CATARINA,Mata Atlântica,-27.76428432642486,-49.911111554404165,5.763141,Médio,0.12053668025532308,-0.992708874098054,3.6551515151515153,4.833333333333333
BOCAIÚVA,MINAS GERAIS,Cerrado,-17.332999698512136,-43.67629356264683,13.779436,Alto,0.12053668025532308,-0.992708874098054,6.127407407407407,29.425925925925927
BOCAIÚVA DO SUL,PARANÁ,Mata Atlântica,-25.16887566607459,-49.02179756660744,5.6138597,Médio,0.12053668025532308,-0.992708874098054,4.787179487179487,6.397435897435898
BODOCÓ,PERNAMBUCO,Caatinga,-7.597769981737008,-39.97977008624189,19.452925,Alto,0.12053668025532308,-0.992708874098054,6.590748299319728,35.49659863945578
BODOQUENA,MATO GROSSO DO SUL,Cerrado,-20.497468052508744,-56.589921401011274,13.002794,Alto,0.12053668025532308,-0.992708874098054,5.573553719008264,9.0
BODÓ,RIO GRANDE DO NORTE,Caatinga,-5.999571811023624,-36.485727401574806,7.379186,Médio,0.12053668025532308,-0.992708874098054,0.44425,30.15
BOM CONSELHO,PERNAMBUCO,Caatinga,-9.217747209183672,-36.71136038265306,12.426795,Alto,0.12053668025532308,-0.992708874098054,7.254838709677419,24.282258064516128
BOM DESPACHO,MINAS GERAIS,Cerrado,-19.701353073076934,-45.31170597019232,12.000239,Alto,0.12053668025532308,-0.992708874098054,4.414297520661157,25.628099173553718
BOM JARDIM,MARANHÃO,Amazônia,-3.9754365257507898,-46.49867624934142,25.29533,Alto,0.12053668025532308,-0.992708874098054,56.42226765799256,22.33457249070632
BOM JARDIM DA SERRA,SANTA CATARINA,Mata Atlântica,-28.380636426237622,-49.642631781188136,5.946434,Médio,0.12053668025532308,-0.992708874098054,5.726779661016949,5.406779661016949
BOM JARDIM DE GOIÁS,GOIÁS,Cerrado,-16.230363657672175,-52.16000570076521,18.710363,Alto,0.12053668025532308,-0.992708874098054,6.446868686868687,22.838383838383837
BOM JARDIM DE MINAS,MINAS GERAIS,Mata Atlântica,-21.95611241007195,-44.13673435971223,8.362109,Médio,0.12053668025532308,-0.992708874098054,4.426153846153846,11.75
BOM JESUS,PIAUÍ,Cerrado,-9.184633507600436,-44.77134259161237,18.59243,Alto,0.12053668025532308,-0.992708874098054,15.226473829201103,19.696969696969695
BOM JESUS DA LAPA,BAHIA,Caatinga,-13.27227956036714,-43.23817734196282,23.997835,Alto,0.12053668025532308,-0.992708874098054,18.56013029315961,27.29641693811075
BOM JESUS DA PENHA,MINAS GERAIS,Mata Atlântica,-21.022595972222224,-46.512640000000005,11.259476,Alto,0.12053668025532308,-0.992708874098054,2.0459375,22.0
BOM JESUS DAS SELVAS,MARANHÃO,Amazônia,-4.612418265479874,-46.6645388026316,24.020693,Alto,0.12053668025532308,-0.992708874098054,48.04796992481203,30.195488721804512
BOM JESUS DE GOIÁS,GOIÁS,Cerrado,-18.171467070036098,-49.909071096028896,35.357014,Alto,0.12053668025532308,-0.992708874098054,32.44820512820513,21.811965811965813
BOM JESUS DO ARAGUAIA,MATO GROSSO,Amazônia,-12.06578853341903,-51.871419150814056,28.913572,Alto,0.12053668025532308,-0.992708874098054,36.258761904761904,21.590476190476192
BOM JESUS DO GALHO,MINAS GERAIS,Mata Atlântica,-19.76633184872979,-42.360167580831416,11.7357025,Alto,0.12053668025532308,-0.992708874098054,7.668928571428572,37.19642857142857
BOM JESUS DO ITABAPOANA,RIO DE JANEIRO,Mata Atlântica,-21.130801744999996,-41.673884599999994,10.178438,Médio,0.12053668025532308,-0.992708874098054,1.1492063492063493,24.0
BOM JESUS DO TOCANTINS,PARÁ,Amazônia,-4.987571704630788,-48.73305658215628,19.495823,Alto,0.12053668025532308,-0.992708874098054,62.71396551724138,16.362068965517242
BOM LUGAR,MARANHÃO,Amazônia,-4.3176890310786105,-45.03097812065815,18.508442,Alto,0.12053668025532308,-0.992708874098054,9.30439393939394,15.727272727272727
BOM PRINCÍPIO,RIO GRANDE DO SUL,Mata Atlântica,-29.449607750000002,-51.37125149999999,3.889278,Baixo,0.12053668025532308,-0.992708874098054,0.0,4.526315789473684
BOM PRINCÍPIO DO PIAUÍ,PIAUÍ,Caatinga,-3.1361334193548394,-41.62843431428571,15.320524,Alto,0.12053668025532308,-0.992708874098054,2.9714705882352943,32.76470588235294
BOM RETIRO,SANTA CATARINA,Mata Atlântica,-27.775359290322587,-49.55377525483871,5.9080095,Médio,0.12053668025532308,-0.992708874098054,3.898730158730159,4.333333333333333
BOM RETIRO DO SUL,RIO GRANDE DO SUL,Mata Atlântica,-29.644254705882354,-51.91802235294118,3.9908855,Baixo,0.12053668025532308,-0.992708874098054,0.22529411764705884,5.411764705882353
BOM SUCESSO,PARAÍBA,Caatinga,-6.493885406698565,-37.96118526315791,11.7993555,Alto,0.12053668025532308,-0.992708874098054,2.0229910714285713,17.776785714285715
BOM SUCESSO DO SUL,PARANÁ,Mata Atlântica,-26.068171818181817,-52.88917590909091,8.549072,Médio,0.12053668025532308,-0.992708874098054,18.189285714285713,5.571428571428571
BOMBINHAS,SANTA CATARINA,Mata Atlântica,-27.21561,-48.51101,7.5398836,Médio,0.12053668025532308,-0.992708874098054,59.19,0.0
BONFIM,RORAIMA,Amazônia,2.9068927141049357,-60.13160408702423,15.307146,Alto,0.12053668025532308,-0.992708874098054,28.533981481481483,15.444444444444445
BONFINÓPOLIS,GOIÁS,Cerrado,-16.596249726618705,-49.018848129496405,14.251705,Alto,0.12053668025532308,-0.992708874098054,0.22903225806451613,39.225806451612904
BONFINÓPOLIS DE MINAS,MINAS GERAIS,Cerrado,-16.48127539795918,-46.20253323341837,12.912557,Alto,0.12053668025532308,-0.992708874098054,3.420322580645161,27.344086021505376
BONINAL,BAHIA,Caatinga,-12.77567006079027,-41.85656499696047,12.851027,Alto,0.12053668025532308,-0.992708874098054,3.1190322580645162,29.72043010752688
BONITO,BAHIA,Caatinga,-11.940501894438135,-41.334329236095364,17.021881,Alto,0.12053668025532308,-0.992708874098054,11.430378250591017,18.955082742316783
BONITO DE MINAS,MINAS GERAIS,Cerrado,-14.85573307125133,-45.00549906451613,20.146244,Alto,0.12053668025532308,-0.992708874098054,11.801269841269841,33.62698412698413
BONITO DE SANTA FÉ,PARAÍBA,Caatinga,-7.290834603960397,-38.482209250825065,15.866384,Alto,0.12053668025532308,-0.992708874098054,1.3839240506329114,18.620253164556964
BONÓPOLIS,GOIÁS,Cerrado,-13.551503774403471,-49.740989898047715,23.22953,Alto,0.12053668025532308,-0.992708874098054,19.944430379746837,14.582278481012658
BOQUEIRÃO,PARAÍBA,Caatinga,-7.462921958041957,-36.1406441958042,6.8124857,Médio,0.12053668025532308,-0.992708874098054,0.0742,33.74
BOQUIM,SERGIPE,Mata Atlântica,-11.143749607843136,-37.63120529411765,6.94028,Médio,0.12053668025532308,-0.992708874098054,0.016666666666666666,17.22222222222222
BOQUIRA,BAHIA,Caatinga,-12.742525949055054,-42.74074490468365,19.418108,Alto,0.12053668025532308,-0.992708874098054,17.58059405940594,28.099009900990097
BORBA,AMAZONAS,Amazônia,-5.147498834704424,-59.75711720463026,18.169672,Alto,0.12053668025532308,-0.992708874098054,101.65824817518248,7.839416058394161
BORBOREMA,SÃO PAULO,Cerrado,-21.614641809633028,-49.02895047706422,12.628291,Alto,0.12053668025532308,-0.992708874098054,2.395192307692308,15.153846153846153
BOSSOROCA,RIO GRANDE DO SUL,Pampa,-28.696798013245036,-54.97619953642386,19.74087,Alto,0.12053668025532308,-0.992708874098054,11.521914893617021,6.085106382978723
BOTELHOS,MINAS GERAIS,Mata Atlântica,-21.63918959798994,-46.426002763819085,8.077992,Médio,0.12053668025532308,-0.992708874098054,1.5514893617021277,9.0
BOTUCATU,SÃO PAULO,Cerrado,-22.83595408470925,-48.452694184493915,14.007729,Alto,0.12053668025532308,-0.992708874098054,10.900796460176991,8.283185840707965
BOTUMIRIM,MINAS GERAIS,Cerrado,-16.90296093958665,-43.015688476947524,12.719791,Alto,0.12053668025532308,-0.992708874098054,5.5410416666666675,24.489583333333332
BOTUPORÃ,BAHIA,Caatinga,-13.334536115107914,-42.50972319964029,15.069817,Alto,0.12053668025532308,-0.992708874098054,6.835342465753424,25.054794520547944
BOTUVERÁ,SANTA CATARINA,Mata Atlântica,-27.235966973684214,-49.08340125,4.9459977,Médio,0.12053668025532308,-0.992708874098054,2.1723214285714287,5.875
BRAGANÇA,PARÁ,Amazônia,-1.2391863397620022,-46.76706798338121,16.132153,Alto,0.12053668025532308,-0.992708874098054,31.000825688073395,15.577981651376147
BRAGANÇA PAULISTA,SÃO PAULO,Mata Atlântica,-22.931975278438028,-46.54583643123938,6.6430383,Médio,0.12053668025532308,-0.992708874098054,2.120705882352941,9.31764705882353
BRANQUINHA,ALAGOAS,Mata Atlântica,-9.23075725619835,-36.03994410743802,9.739799,Médio,0.12053668025532308,-0.992708874098054,0.12340425531914893,23.29787234042553
BRASIL NOVO,PARÁ,Amazônia,-3.0750828353158317,-52.6254887656891,16.505693,Alto,0.12053668025532308,-0.992708874098054,63.88119402985075,7.246268656716418
BRASILEIRA,PIAUÍ,Caatinga,-4.1322040658554045,-41.64433071438797,13.757923,Alto,0.12053668025532308,-0.992708874098054,6.155049504950495,21.514851485148515
BRASILÂNDIA,MATO GROSSO DO SUL,Cerrado,-21.086671004934203,-52.404613976973685,17.500359,Alto,0.12053668025532308,-0.992708874098054,10.786666666666669,6.476190476190476
BRASILÂNDIA DE MINAS,MINAS GERAIS,Cerrado,-16.98722828516229,-45.873524461875334,14.902194,Alto,0.12053668025532308,-0.992708874098054,13.3571875,30.125
BRASILÂNDIA DO SUL,PARANÁ,Mata Atlântica,-24.132405999999996,-53.513364,9.264166,Médio,0.12053668025532308,-0.992708874098054,2.502,6.0
BRASILÂNDIA DO TOCANTINS,TOCANTINS,Cerrado,-8.299077382978721,-48.3973781374468,17.938042,Alto,0.12053668025532308,-0.992708874098054,13.391492537313432,21.970149253731343
BRASILÉIA,ACRE,Amazônia,-10.718977205118673,-69.26743866386427,15.473701,Alto,0.12053668025532308,-0.992708874098054,173.5024087591241,8.518248175182482
BRASNORTE,MATO GROSSO,Amazônia,-12.336949121744372,-57.874833614469466,34.573032,Alto,0.12053668025532308,-0.992708874098054,173.48904024767802,16.76780185758514
BRASÍLIA,DISTRITO FEDERAL,Cerrado,-15.75697233860628,-47.90573270427106,19.023306,Alto,0.12053668025532308,-0.992708874098054,17.985632183908045,26.448275862068964
BRASÍLIA DE MINAS,MINAS GERAIS,Cerrado,-16.231411357575755,-44.41577909090909,12.632495,Alto,0.12053668025532308,-0.992708874098054,0.9165671641791044,42.19402985074627
BRAÇO DO NORTE,SANTA CATARINA,Mata Atlântica,-28.24558382022472,-49.13986898876404,3.7609308,Baixo,0.12053668025532308,-0.992708874098054,1.7066666666666666,4.2444444444444445
BRAÇO DO TROMBUDO,SANTA CATARINA,Mata Atlântica,-27.36824464285714,-49.89747071428572,5.456532,Médio,0.12053668025532308,-0.992708874098054,3.2331578947368422,3.6842105263157894
BRAÚNAS,MINAS GERAIS,Mata Atlântica,-19.105637819444446,-42.730786972222226,12.361172,Alto,0.12053668025532308,-0.992708874098054,8.9316,30.32
BREJETUBA,ESPÍRITO SANTO,Mata Atlântica,-20.17321718568995,-41.31463429301534,11.098499,Alto,0.12053668025532308,-0.992708874098054,3.7090243902439024,26.5609756097561
BREJINHO,PERNAMBUCO,Caatinga,-7.341886459330141,-37.33139712918661,13.326859,Alto,0.12053668025532308,-0.992708874098054,0.9544155844155844,27.272727272727273
BREJINHO DE NAZARÉ,TOCANTINS,Cerrado,-11.079388295310135,-48.60499265234492,22.987347,Alto,0.12053668025532308,-0.992708874098054,34.39535433070866,21.669291338582678
BREJO,MARANHÃO,Cerrado,-3.6785083900414937,-42.81858751811895,22.371603,Alto,0.12053668025532308,-0.992708874098054,32.02311111111111,19.348148148148148
BREJO DA MADRE DE DEUS,PERNAMBUCO,Caatinga,-8.093072656249998,-36.29177080729166,6.436631,Médio,0.12053668025532308,-0.992708874098054,1.5972727272727274,27.511363636363637
BREJO DE AREIA,MARANHÃO,Amazônia,-4.376444990022451,-45.66510552344723,23.130213,Alto,0.12053668025532308,-0.992708874098054,32.8185593220339,23.864406779661017
BREJO DO CRUZ,PARAÍBA,Caatinga,-6.3267767292225185,-37.495411045576404,15.844096,Alto,0.12053668025532308,-0.992708874098054,5.494606741573033,28.55056179775281
BREJO DOS SANTOS,PARAÍBA,Caatinga,-6.38991875,-37.844558854166664,13.188519,Alto,0.12053668025532308,-0.992708874098054,1.5861363636363637,29.454545454545453
BREJO GRANDE,SERGIPE,Mata Atlântica,-10.46474177419355,-36.48590225806451,15.840517,Alto,0.12053668025532308,-0.992708874098054,0.27580645161290324,0.0
BREJO GRANDE DO ARAGUAIA,PARÁ,Amazônia,-5.686626073619633,-48.422582136196326,14.007525,Alto,0.12053668025532308,-0.992708874098054,12.334444444444445,8.222222222222221
BREJO SANTO,CEARÁ,Caatinga,-7.545664358744399,-38.92613180627803,17.08584,Alto,0.12053668025532308,-0.992708874098054,3.707102803738318,24.990654205607477
BREJOLÂNDIA,BAHIA,Cerrado,-12.496369786698631,-43.75789656366089,24.815731,Alto,0.12053668025532308,-0.992708874098054,21.308503401360543,28.918367346938776
BREJÃO,PERNAMBUCO,Caatinga,-9.035728461538463,-36.508108615384614,9.096658,Médio,0.12053668025532308,-0.992708874098054,0.2558139534883721,25.41860465116279
BREJÕES,BAHIA,Caatinga,-12.97661375,-39.8776671875,10.936735,Médio,0.12053668025532308,-0.992708874098054,0.6891666666666666,19.010416666666668
BREU BRANCO,PARÁ,Amazônia,-3.6616798721943975,-49.33822161092561,17.910912,Alto,0.12053668025532308,-0.992708874098054,83.09900662251655,11.589403973509933
BREVES,PARÁ,Amazônia,-1.4140189218616552,-50.44108750811273,10.545405,Médio,0.12053668025532308,-0.992708874098054,115.52234234234234,3.4864864864864864
BRITÂNIA,GOIÁS,Cerrado,-15.06531623567921,-51.21563991271141,21.677313,Alto,0.12053668025532308,-0.992708874098054,8.004827586206897,18.908045977011493
BROCHIER,RIO GRANDE DO SUL,Mata Atlântica,-29.530255643564363,-51.63048717821782,4.0861673,Baixo,0.12053668025532308,-0.992708874098054,0.5502702702702702,4.675675675675675
BROTAS,SÃO PAULO,Cerrado,-22.18362014881549,-48.04540508074739,21.20519,Alto,0.12053668025532308,-0.992708874098054,28.974197530864195,8.567901234567902
BROTAS DE MACAÚBAS,BAHIA,Caatinga,-12.158045280122792,-42.356792333077514,15.421945,Alto,0.12053668025532308,-0.992708874098054,3.539462365591398,30.35483870967742
BRUMADINHO,MINAS GERAIS,Mata Atlântica,-20.185797593723503,-44.112729192536044,11.973003,Alto,0.12053668025532308,-0.992708874098054,3.499487179487179,30.692307692307693
BRUMADO,BAHIA,Caatinga,-14.175488229890414,-41.690479219398476,12.870357,Alto,0.12053668025532308,-0.992708874098054,7.779181286549708,26.935672514619885
BRUNÓPOLIS,SANTA CATARINA,Mata Atlântica,-27.34629373188406,-50.86376478260868,6.7981844,Médio,0.12053668025532308,-0.992708874098054,3.124814814814815,5.907407407407407
BRUSQUE,SANTA CATARINA,Mata Atlântica,-27.13398744186047,-48.933365348837214,4.2777867,Baixo,0.12053668025532308,-0.992708874098054,2.4820689655172417,4.517241379310345
BRÁS PIRES,MINAS GERAIS,Mata Atlântica,-20.857587467236463,-43.251614028490025,10.774229,Médio,0.12053668025532308,-0.992708874098054,1.0084745762711864,20.8135593220339
BUENOS AIRES,PERNAMBUCO,Mata Atlântica,-7.739605163934428,-35.345094926229514,8.530794,Médio,0.12053668025532308,-0.992708874098054,0.27452380952380956,17.976190476190474
BUENÓPOLIS,MINAS GERAIS,Cerrado,-17.93222546621414,-44.14516591237272,14.851393,Alto,0.12053668025532308,-0.992708874098054,6.604224137931035,36.12068965517241
BUERAREMA,BAHIA,Mata Atlântica,-14.99282362831858,-39.271177433628324,9.25923,Médio,0.12053668025532308,-0.992708874098054,2.004473684210526,11.473684210526315
BUJARU,PARÁ,Amazônia,-1.6509027582748244,-48.0853666752257,13.574852,Alto,0.12053668025532308,-0.992708874098054,85.72237288135592,5.898305084745763
BURI,SÃO PAULO,Cerrado,-23.74772527272727,-48.63856490909093,6.566746,Médio,0.12053668025532308,-0.992708874098054,2.4593442622950823,7.163934426229508
BURITI,MARANHÃO,Cerrado,-3.897287377125193,-43.06370057341576,23.460756,Alto,0.12053668025532308,-0.992708874098054,35.822450980392155,24.279411764705884
BURITI ALEGRE,GOIÁS,Cerrado,-18.092095155279505,-49.08206807453416,25.44673,Alto,0.12053668025532308,-0.992708874098054,3.520625,22.125
BURITI BRAVO,MARANHÃO,Cerrado,-5.766921741383552,-43.813957350361065,28.332932,Alto,0.12053668025532308,-0.992708874098054,57.7581045751634,20.333333333333332
BURITI DOS LOPES,PIAUÍ,Caatinga,-3.230697308039747,-41.79416509756096,17.441053,Alto,0.12053668025532308,-0.992708874098054,4.303540372670808,24.39751552795031
BURITI DOS MONTES,PIAUÍ,Caatinga,-5.169136702230846,-41.15816833317169,15.693909,Alto,0.12053668025532308,-0.992708874098054,6.507840909090908,45.86363636363637
BURITICUPU,MARANHÃO,Amazônia,-4.52745167232171,-46.387547074510415,24.827509,Alto,0.12053668025532308,-0.992708874098054,82.20492857142858,32.22142857142857
BURITIRAMA,BAHIA,Cerrado,-10.545451356407526,-43.631117593361736,23.926332,Alto,0.12053668025532308,-0.992708874098054,8.756470588235294,47.33613445378151
BURITIRANA,MARANHÃO,Cerrado,-5.527804465935338,-47.06270950519631,21.359755,Alto,0.12053668025532308,-0.992708874098054,15.484227642276423,25.504065040650406
BURITIS,MINAS GERAIS,Cerrado,-15.478875610599076,-46.545263745583725,30.18029,Alto,0.12053668025532308,-0.992708874098054,36.45239837398374,24.96747967479675
BURITIZAL,SÃO PAULO,Cerrado,-20.180605190724634,-47.703877467826096,22.116623,Alto,0.12053668025532308,-0.992708874098054,5.556666666666667,38.81481481481482
BURITIZEIRO,MINAS GERAIS,Cerrado,-17.372904151743132,-45.22717669944956,20.868387,Alto,0.12053668025532308,-0.992708874098054,25.832228915662654,27.8855421686747
BUTIÁ,RIO GRANDE DO SUL,Pampa,-30.270677500000005,-52.023095043859634,3.6842997,Baixo,0.12053668025532308,-0.992708874098054,0.4606,4.66
BUÍQUE,PERNAMBUCO,Caatinga,-8.663856435424353,-37.10092671808117,13.947483,Alto,0.12053668025532308,-0.992708874098054,14.391560283687944,25.070921985815602
CAAPIRANGA,AMAZONAS,Amazônia,-3.1705599467663363,-61.48514114542985,11.354812,Alto,0.12053668025532308,-0.992708874098054,93.9387356321839,4.816091954022989
CAAPORÃ,PARAÍBA,Mata Atlântica,-7.484582678571428,-34.912050550000004,10.822927,Médio,0.12053668025532308,-0.992708874098054,0.7216901408450704,0.0
CAARAPÓ,MATO GROSSO DO SUL,Mata Atlântica,-22.587402546452086,-54.87680394586687,17.00329,Alto,0.12053668025532308,-0.992708874098054,8.93816,6.904
CAATIBA,BAHIA,Mata Atlântica,-14.991537104294478,-40.35179305766871,13.517088,Alto,0.12053668025532308,-0.992708874098054,4.834444444444445,22.382716049382715
CABACEIRAS,PARAÍBA,Caatinga,-7.48383607142857,-36.2911182142857,8.091194,Médio,0.12053668025532308,-0.992708874098054,0.14933333333333332,42.15555555555556
CABACEIRAS DO PARAGUAÇU,BAHIA,Mata Atlântica,-12.563169166666668,-39.23367869047619,8.976134,Médio,0.12053668025532308,-0.992708874098054,0.2703225806451613,12.387096774193548
CABECEIRA GRANDE,MINAS GERAIS,Cerrado,-16.01355938502674,-47.072314184491965,12.173326,Alto,0.12053668025532308,-0.992708874098054,0.7644230769230769,43.96153846153846
CABECEIRAS,GOIÁS,Cerrado,-15.726830615212524,-46.99993994630871,14.181103,Alto,0.12053668025532308,-0.992708874098054,3.035432098765432,38.23456790123457
CABECEIRAS DO PIAUÍ,PIAUÍ,Caatinga,-4.426147200000001,-42.32850842947368,18.15318,Alto,0.12053668025532308,-0.992708874098054,6.7451020408163265,32.795918367346935
CABIXI,RONDÔNIA,Amazônia,-13.523261679569886,-60.644330027957,17.649273,Alto,0.12053668025532308,-0.992708874098054,9.835443037974683,12.962025316455696
CABO DE SANTO AGOSTINHO,PERNAMBUCO,Mata Atlântica,-8.273733990476192,-35.09130458333332,8.125458,Médio,0.12053668025532308,-0.992708874098054,1.0109677419354839,20.50537634408602
CABO FRIO,RIO DE JANEIRO,Mata Atlântica,-22.63369357260275,-42.09062989315068,7.7459974,Médio,0.12053668025532308,-0.992708874098054,4.277476635514018,7.149532710280374
CABREÚVA,SÃO PAULO,Mata Atlântica,-23.282067431906615,-47.10202906614784,3.3249707,Baixo,0.12053668025532308,-0.992708874098054,1.5928333333333333,7.35
CABROBÓ,PERNAMBUCO,Caatinga,-8.390052523565572,-39.369658447745934,13.757332,Alto,0.12053668025532308,-0.992708874098054,1.3568421052631578,33.473684210526315
CACAULÂNDIA,RONDÔNIA,Amazônia,-10.353733916617733,-62.97654155255433,15.257732,Alto,0.12053668025532308,-0.992708874098054,25.028023255813956,13.430232558139535
CACEQUI,RIO GRANDE DO SUL,Pampa,-29.941200472440958,-54.85456745039369,5.4610667,Médio,0.12053668025532308,-0.992708874098054,8.345714285714285,5.880952380952381
CACHOEIRA,BAHIA,Mata Atlântica,-12.622765862068968,-38.90689166666667,5.8103867,Médio,0.12053668025532308,-0.992708874098054,0.7750000000000001,0.0
CACHOEIRA ALTA,GOIÁS,Cerrado,-18.49538662886598,-50.98694262542955,26.191288,Alto,0.12053668025532308,-0.992708874098054,9.896269841269842,15.80952380952381
CACHOEIRA DE GOIÁS,GOIÁS,Cerrado,-16.74152091428571,-50.69700635714287,18.407707,Alto,0.12053668025532308,-0.992708874098054,8.894878048780487,19.48780487804878
CACHOEIRA DE PAJEÚ,MINAS GERAIS,Mata Atlântica,-15.968947137577002,-41.48254348254619,12.305668,Alto,0.12053668025532308,-0.992708874098054,2.1371052631578946,34.23684210526316
CACHOEIRA DO ARARI,PARÁ,Amazônia,-0.970060522979398,-48.867759148290695,12.749534,Alto,0.12053668025532308,-0.992708874098054,28.039677419354838,8.344086021505376
CACHOEIRA DO PIRIÁ,PARÁ,Amazônia,-2.087968467229117,-46.45695805459487,17.570385,Alto,0.12053668025532308,-0.992708874098054,92.74788135593221,11.033898305084746
CACHOEIRA DO SUL,RIO GRANDE DO SUL,Mata Atlântica,-29.8244625,-53.079584999999994,4.6060667,Baixo,0.12053668025532308,-0.992708874098054,4.281847826086957,4.706521739130435
CACHOEIRA DOS ÍNDIOS,PARAÍBA,Caatinga,-6.942828973063972,-38.69787146464646,17.27866,Alto,0.12053668025532308,-0.992708874098054,2.2908450704225354,19.281690140845072
CACHOEIRA DOURADA,GOIÁS,Mata Atlântica,-18.482668604166662,-49.66649846794871,31.399845,Alto,0.12053668025532308,-0.992708874098054,8.055283018867925,20.443396226415093
CACHOEIRA GRANDE,MARANHÃO,Cerrado,-3.1189232858273948,-43.92426840142518,18.032804,Alto,0.12053668025532308,-0.992708874098054,4.813389830508474,23.338983050847457
CACHOEIRA PAULISTA,SÃO PAULO,Mata Atlântica,-22.700720835926443,-44.958859872701545,6.02751,Médio,0.12053668025532308,-0.992708874098054,3.396153846153846,7.9743589743589745
CACHOEIRAS DE MACACU,RIO DE JANEIRO,Mata Atlântica,-22.56908446894409,-42.7770289378882,7.1301403,Médio,0.12053668025532308,-0.992708874098054,0.9860493827160495,8.333333333333334
CACHOEIRINHA,PERNAMBUCO,Caatinga,-8.496270483870967,-36.2950245107527,16.081587,Alto,0.12053668025532308,-0.992708874098054,6.217880794701987,20.927152317880793
CACHOEIRO DE ITAPEMIRIM,ESPÍRITO SANTO,Mata Atlântica,-20.803392186375326,-41.15338156298201,9.317073,Médio,0.12053668025532308,-0.992708874098054,1.7373958333333333,18.53125
CACIMBA DE AREIA,PARAÍBA,Caatinga,-7.1393761176470605,-37.17519411764706,13.379268,Alto,0.12053668025532308,-0.992708874098054,0.7170588235294117,31.352941176470587
CACIMBAS,PARAÍBA,Caatinga,-7.21140898989899,-37.10406717171717,11.924149,Alto,0.12053668025532308,-0.992708874098054,0.20657894736842106,51.26315789473684
CACIMBINHAS,ALAGOAS,Caatinga,-9.457277463556853,-36.92306583090379,14.685407,Alto,0.12053668025532308,-0.992708874098054,3.361973684210527,24.894736842105264
CACIQUE DOBLE,RIO GRANDE DO SUL,Mata Atlântica,-27.8162175,-51.66118575,5.564918,Médio,0.12053668025532308,-0.992708874098054,0.9413636363636364,4.681818181818182
CACOAL,RONDÔNIA,Amazônia,-11.273378021064296,-61.31672721175169,19.056433,Alto,0.12053668025532308,-0.992708874098054,25.444174757281555,16.728155339805824
CACULÉ,BAHIA,Caatinga,-14.482033013698624,-42.28114898840884,12.936952,Alto,0.12053668025532308,-0.992708874098054,2.2975,34.175925925925924
CAETANÓPOLIS,MINAS GERAIS,Cerrado,-19.350838033333336,-44.39040563333333,9.379155,Médio,0.12053668025532308,-0.992708874098054,0.17846153846153845,34.95384615384615
CAETITÉ,BAHIA,Caatinga,-13.906521980160239,-42.45794197138496,15.674601,Alto,0.12053668025532308,-0.992708874098054,8.400359712230216,34.92086330935252
CAETÉS,PERNAMBUCO,Caatinga,-8.782607931034482,-36.68145155172414,7.7984586,Médio,0.12053668025532308,-0.992708874098054,1.6575000000000002,18.970588235294116
CAFARNAUM,BAHIA,Caatinga,-11.718048085106378,-41.52215496217493,11.01239,Alto,0.12053668025532308,-0.992708874098054,0.4368316831683169,44.039603960396036
CAFEARA,PARANÁ,Mata Atlântica,-22.79859603448276,-51.74240103448276,16.357428,Alto,0.12053668025532308,-0.992708874098054,4.547727272727273,6.7727272727272725
CAFELÂNDIA,PARANÁ,Mata Atlântica,-24.641959999999994,-53.328614400000006,18.779793,Alto,0.12053668025532308,-0.992708874098054,4.051098901098901,5.274725274725275
CAFEZAL DO SUL,PARANÁ,Mata Atlântica,-23.935310645161294,-53.555002258064505,8.893171,Médio,0.12053668025532308,-0.992708874098054,3.161395348837209,4.953488372093023
CAIAPÔNIA,GOIÁS,Cerrado,-17.034365770002793,-51.84427367605239,22.05721,Alto,0.12053668025532308,-0.992708874098054,19.530608108108108,22.533783783783782
CAIBATÉ,RIO GRANDE DO SUL,Pampa,-28.35400416666667,-54.71517666666667,3.749465,Baixo,0.12053668025532308,-0.992708874098054,0.26625,6.375
CAIBI,SANTA CATARINA,Mata Atlântica,-27.018493095238092,-53.26265833333332,4.8735275,Baixo,0.12053668025532308,-0.992708874098054,0.5338888888888889,6.416666666666667
CAICÓ,RIO GRANDE DO NORTE,Caatinga,-6.46672003021148,-37.06303658610272,12.80519,Alto,0.12053668025532308,-0.992708874098054,2.6582051282051284,32.5
CAIEIRAS,SÃO PAULO,Mata Atlântica,-23.34473847372742,-46.76818361165846,3.5300777,Baixo,0.12053668025532308,-0.992708874098054,15.06111888111888,6.713286713286713
CAIRU,BAHIA,Mata Atlântica,-13.530564960629919,-38.968921834645656,4.836686,Baixo,0.12053668025532308,-0.992708874098054,0.42083333333333334,0.25
CAIUÁ,SÃO PAULO,Mata Atlântica,-21.687233144897963,-51.93808969183674,18.180983,Alto,0.12053668025532308,-0.992708874098054,7.870833333333334,6.458333333333333
CAIÇARA,PARAÍBA,Caatinga,-6.619027176470586,-35.410327294117636,9.299508,Médio,0.12053668025532308,-0.992708874098054,0.2255172413793103,16.03448275862069
CAIÇARA DO NORTE,RIO GRANDE DO NORTE,Caatinga,-5.264356155778894,-36.037652804020105,11.502172,Alto,0.12053668025532308,-0.992708874098054,5.7056,36.72
CAIÇARA DO RIO DO VENTO,RIO GRANDE DO NORTE,Caatinga,-5.7595302777777775,-36.0136875,8.371818,Médio,0.12053668025532308,-0.992708874098054,0.5905263157894737,27.736842105263158
